[{"datasetid": "stations_et_espaces_autolib_de_la_metropole_parisienne", "recordid": "9684c224696c69397990eb58b6660f65bc72dd46", "fields": {"ville": "Paris", "id_dsp": "75107-PB", "id_autolib": "Paris/S\u00e8vres Babylone/Parking", "adresse": "1 rue Velpeau", "xy": [48.851425, 2.325024], "prises_autolib": 6.0, "cp": 75007, "type": "Parking"}, "geometry": {"type": "Point", "coordinates": [2.325024, 48.851425]}, "record_timestamp": "2016-08-27T18:20:20+02:00"},{"datasetid": "stations_et_espaces_autolib_de_la_metropole_parisienne", "recordid": "700ebd78b7624867685e3b079febca1c590b430e", "fields": {"ville": "Paris", "id_dsp": "75114-PA", "id_autolib": "Paris/Montparnasse Ga\u00eet\u00e9/Parking", "adresse": "15 rue du Commandant Ren\u00e9 Mouchotte", "xy": [48.838734, 2.320556], "prises_autolib": 6.0, "cp": 75014, "type": "Parking"}, "geometry": {"type": "Point", "coordinates": [2.320556, 48.838734]}, "record_timestamp": "2016-08-27T18:20:20+02:00"},{"datasetid": "stations_et_espaces_autolib_de_la_metropole_parisienne", "recordid": "2bfd0959c4f251773c4fbea012d5918280cc1105", "fields": {"ville": "Paris", "id_dsp": "75115-PD", "id_autolib": "Paris/Pasteur Montparnasse/Parking", "adresse": "81 rue Falgui\u00e8re", "xy": [48.839848, 2.312476], "prises_autolib": 6.0, "cp": 75015, "type": "Parking"}, "geometry": {"type": "Point", "coordinates": [2.312476, 48.839848]}, "record_timestamp": "2016-08-27T18:20:20+02:00"},{"datasetid": "stations_et_espaces_autolib_de_la_metropole_parisienne", "recordid": "9e84e73c711e44ffce808e2536fa3313434cfa10", "fields": {"ville": "Paris", "id_dsp": "75115-PM", "id_autolib": "Paris/Cambronne/Parking", "adresse": "26 villa Croix-Nivert", "xy": [48.845331, 2.300746], "prises_autolib": 6.0, "cp": 75015, "type": "Parking"}, "geometry": {"type": "Point", "coordinates": [2.300746, 48.845331]}, "record_timestamp": "2016-08-27T18:20:20+02:00"},{"datasetid": "stations_et_espaces_autolib_de_la_metropole_parisienne", "recordid": "0e9ce0524883e8bcb188935d30fbeb7e7e422d7c", "fields": {"ville": "Levallois-Perret", "id_dsp": "92044-PB", "id_autolib": "Levallois-Perret/Wilson-Planchette/Parking", "adresse": "80 bis rue du pr\u00e9sident Wilson", "xy": [48.894233, 2.288499], "prises_autolib": 6.0, "cp": 92300, "type": "Parking"}, "geometry": {"type": "Point", "coordinates": [2.288499, 48.894233]}, "record_timestamp": "2016-08-27T18:20:20+02:00"},{"datasetid": "stations_et_espaces_autolib_de_la_metropole_parisienne", "recordid": "dd70cea61ec21efaf30eb949fbca84f55f947b61", "fields": {"ville": "Levallois-Perret", "id_dsp": "92044-PC", "id_autolib": "Levallois-Perret/Pompidou/Parking", "adresse": "1 Place Georges Pompidou", "xy": [48.898954, 2.28177], "prises_autolib": 6.0, "cp": 92300, "type": "Parking"}, "geometry": {"type": "Point", "coordinates": [2.28177, 48.898954]}, "record_timestamp": "2016-08-27T18:20:20+02:00"},{"datasetid": "stations_et_espaces_autolib_de_la_metropole_parisienne", "recordid": "77643bcc55740391a8620296d104296a2adb7857", "fields": {"ville": "Levallois-Perret", "id_dsp": "92044-PD", "id_autolib": "Levallois-Perret/Andr\u00e9 Citro\u00ebn/Parking", "adresse": "33 rue Ernest Cognacq", "xy": [48.897044, 2.276052], "prises_autolib": 6.0, "cp": 92300, "type": "Parking"}, "geometry": {"type": "Point", "coordinates": [2.276052, 48.897044]}, "record_timestamp": "2016-08-27T18:20:20+02:00"},{"datasetid": "stations_et_espaces_autolib_de_la_metropole_parisienne", "recordid": "b2b688c986810c90e96dbd412b36004f6b46f446", "fields": {"ville": "Paris", "id_dsp": "75101-03", "id_autolib": "Paris/Jean-Jacques Rousseau/62", "adresse": "62 rue Jean-Jacques Rousseau", "xy": [48.864084, 2.343733], "prises_autolib": 4.0, "cp": 75001, "type": "Voirie"}, "geometry": {"type": "Point", "coordinates": [2.343733, 48.864084]}, "record_timestamp": "2016-08-27T18:20:20+02:00"},{"datasetid": "stations_et_espaces_autolib_de_la_metropole_parisienne", "recordid": "b10620866e3babc1df9204075d9b9b11b8d6fd28", "fields": {"ville": "Paris", "prises_tiers_t3": 1, "id_dsp": "75101-05", "id_autolib": "Paris/Pyramides/12", "adresse": "12 Rue des Pyramides", "xy": [48.864948, 2.333149], "prises_autolib": 4.0, "cp": 75001, "type": "Voirie"}, "geometry": {"type": "Point", "coordinates": [2.333149, 48.864948]}, "record_timestamp": "2016-08-27T18:20:20+02:00"},{"datasetid": "stations_et_espaces_autolib_de_la_metropole_parisienne", "recordid": "63aa8d9a6813a24796323b2c807b368bf682cfae", "fields": {"ville": "Paris", "prises_tiers_t3": 1, "id_dsp": "75102-04", "id_autolib": "Paris/Quatre septembre/10", "adresse": "10 rue du Quatre septembre", "xy": [48.86934, 2.338372], "prises_autolib": 4.0, "cp": 75002, "type": "Voirie"}, "geometry": {"type": "Point", "coordinates": [2.338372, 48.86934]}, "record_timestamp": "2016-08-27T18:20:20+02:00"},{"datasetid": "stations_et_espaces_autolib_de_la_metropole_parisienne", "recordid": "2d556975369afdbe244cd1d9f29f24c885e0a3dc", "fields": {"ville": "Paris", "prises_tiers_t3": 2, "id_dsp": "75117-40", "id_autolib": "Paris/Jouffroy d'Abbans/108", "adresse": "108 Rue Jouffroy d'Abbans", "xy": [48.882369, 2.301916], "prises_autolib": 4.0, "cp": 75017, "type": "Voirie"}, "geometry": {"type": "Point", "coordinates": [2.301916, 48.882369]}, "record_timestamp": "2016-08-27T18:20:20+02:00"},{"datasetid": "stations_et_espaces_autolib_de_la_metropole_parisienne", "recordid": "6fcdf0b4da72ca68b2b596f25ede8305ad42da29", "fields": {"ville": "Paris", "prises_tiers_t3": 1, "id_dsp": "75117-42", "id_autolib": "Paris/Ternes/6", "adresse": "6 avenue des Ternes", "xy": [48.878287, 2.296558], "prises_autolib": 4.0, "cp": 75017, "type": "Voirie"}, "geometry": {"type": "Point", "coordinates": [2.296558, 48.878287]}, "record_timestamp": "2016-08-27T18:20:20+02:00"},{"datasetid": "stations_et_espaces_autolib_de_la_metropole_parisienne", "recordid": "d3f2bbd179c81f7cdcf4b7b1533ffd16eeaba625", "fields": {"ville": "Paris", "prises_tiers_t3": 1, "id_dsp": "75117-43", "id_autolib": "Paris/Saint Ouen/67", "adresse": "67 avenue de Saint Ouen", "xy": [48.891987, 2.326914], "prises_autolib": 4.0, "cp": 75017, "type": "Voirie"}, "geometry": {"type": "Point", "coordinates": [2.326914, 48.891987]}, "record_timestamp": "2016-08-27T18:20:20+02:00"},{"datasetid": "stations_et_espaces_autolib_de_la_metropole_parisienne", "recordid": "604e608e8b2662786f30184be9bd33a87d8e62fe", "fields": {"ville": "Paris", "prises_tiers_t3": 2, "id_dsp": "75118-03", "id_autolib": "Paris/Vauvenargues/35", "adresse": "35 rue Vauvenargues", "xy": [48.894447, 2.332185], "prises_autolib": 4.0, "cp": 75018, "type": "Voirie"}, "geometry": {"type": "Point", "coordinates": [2.332185, 48.894447]}, "record_timestamp": "2016-08-27T18:20:20+02:00"},{"datasetid": "stations_et_espaces_autolib_de_la_metropole_parisienne", "recordid": "4c87dfee82da9fd7cbfeec94016c4a0d5cb4be50", "fields": {"ville": "Paris", "id_dsp": "75118-13", "id_autolib": "Paris/Caulaincourt/17", "adresse": "17 rue Caulaincourt", "xy": [48.887326, 2.333061], "prises_autolib": 4.0, "cp": 75018, "type": "Voirie"}, "geometry": {"type": "Point", "coordinates": [2.333061, 48.887326]}, "record_timestamp": "2016-08-27T18:20:20+02:00"},{"datasetid": "stations_et_espaces_autolib_de_la_metropole_parisienne", "recordid": "abbac393fa0c4a57bc8c85fa84751878aeb96ea6", "fields": {"ville": "Paris", "prises_tiers_t3": 2, "id_dsp": "75118-17", "id_autolib": "Paris/Duhesme/113", "adresse": "113 Rue Duhesme", "xy": [48.89555, 2.345645], "prises_autolib": 4.0, "cp": 75018, "type": "Voirie"}, "geometry": {"type": "Point", "coordinates": [2.345645, 48.89555]}, "record_timestamp": "2016-08-27T18:20:20+02:00"},{"datasetid": "stations_et_espaces_autolib_de_la_metropole_parisienne", "recordid": "786321cbe50b339ba0ef8f3c0f791ac1aa234276", "fields": {"ville": "Paris", "id_dsp": "75118-33", "id_autolib": "Paris/Chapelle/75", "adresse": "75 rue de la Chapelle", "xy": [48.896931, 2.35874], "prises_autolib": 4.0, "cp": 75018, "type": "Voirie"}, "geometry": {"type": "Point", "coordinates": [2.35874, 48.896931]}, "record_timestamp": "2016-08-27T18:20:20+02:00"},{"datasetid": "stations_et_espaces_autolib_de_la_metropole_parisienne", "recordid": "a7c2eb57e5f97d728bba70c6a90dd255669a6880", "fields": {"ville": "Paris", "prises_tiers_t3": 2, "id_dsp": "75118-44", "id_autolib": "Paris/Charles Hermite/52", "adresse": "52 rue Charles Hermite", "xy": [48.899088, 2.364954], "prises_autolib": 4.0, "cp": 75018, "type": "Voirie"}, "geometry": {"type": "Point", "coordinates": [2.364954, 48.899088]}, "record_timestamp": "2016-08-27T18:20:20+02:00"},{"datasetid": "stations_et_espaces_autolib_de_la_metropole_parisienne", "recordid": "fb7e2185a5bccbf2ecd7778cb32e9d69c75c9364", "fields": {"ville": "Paris", "prises_tiers_t3": 2, "id_dsp": "75119-02", "id_autolib": "Paris/Botzaris/50", "adresse": "50 rue Botzaris", "xy": [48.879076, 2.38364], "prises_autolib": 4.0, "cp": 75019, "type": "Voirie"}, "geometry": {"type": "Point", "coordinates": [2.38364, 48.879076]}, "record_timestamp": "2016-08-27T18:20:20+02:00"},{"datasetid": "stations_et_espaces_autolib_de_la_metropole_parisienne", "recordid": "ff95873928b94ccb0633d62d3889678c00ad46d2", "fields": {"ville": "Paris", "prises_tiers_t3": 1, "id_dsp": "75119-13", "id_autolib": "Paris/Adolphe Mille/8", "adresse": "8 rue Adolphe Mille", "xy": [48.888621, 2.388834], "prises_autolib": 4.0, "cp": 75019, "type": "Voirie"}, "geometry": {"type": "Point", "coordinates": [2.388834, 48.888621]}, "record_timestamp": "2016-08-27T18:20:20+02:00"},{"datasetid": "stations_et_espaces_autolib_de_la_metropole_parisienne", "recordid": "3582727e70cb93f2751642012a2a20b20e53c90d", "fields": {"ville": "Paris", "prises_tiers_t3": 2, "id_dsp": "75119-20", "id_autolib": "Paris/Meurthe/1", "adresse": "1 Rue de la Meurthe", "xy": [48.889515, 2.383132], "prises_autolib": 4.0, "cp": 75019, "type": "Voirie"}, "geometry": {"type": "Point", "coordinates": [2.383132, 48.889515]}, "record_timestamp": "2016-08-27T18:20:20+02:00"},{"datasetid": "stations_et_espaces_autolib_de_la_metropole_parisienne", "recordid": "a6def2ae9803df1f854f554063f9413c4c52d03d", "fields": {"ville": "Paris", "prises_tiers_t3": 1, "id_dsp": "75119-33", "id_autolib": "Paris/Ren\u00e9 Fonck/2", "adresse": "2 Avenue Ren\u00e9 Fonck", "xy": [48.878295, 2.409382], "prises_autolib": 4.0, "cp": 75019, "type": "Voirie"}, "geometry": {"type": "Point", "coordinates": [2.409382, 48.878295]}, "record_timestamp": "2016-08-27T18:20:20+02:00"},{"datasetid": "stations_et_espaces_autolib_de_la_metropole_parisienne", "recordid": "d49de168d44a0e1653a59a10ad568112170c4f2b", "fields": {"ville": "Paris", "prises_tiers_t3": 2, "id_dsp": "75119-36", "id_autolib": "Paris/Secr\u00e9tan/4", "adresse": "4 Avenue Secr\u00e9tan", "xy": [48.882169, 2.370818], "prises_autolib": 4.0, "cp": 75019, "type": "Voirie"}, "geometry": {"type": "Point", "coordinates": [2.370818, 48.882169]}, "record_timestamp": "2016-08-27T18:20:20+02:00"},{"datasetid": "stations_et_espaces_autolib_de_la_metropole_parisienne", "recordid": "92c3a8d707e43b14b0225b689e1d6bcd64fe4aa4", "fields": {"ville": "Paris", "prises_tiers_t3": 2, "id_dsp": "75120-01", "id_autolib": "Paris/Pyr\u00e9n\u00e9es/356", "adresse": "356 rue des Pyr\u00e9n\u00e9es", "xy": [48.873981, 2.386397], "prises_autolib": 4.0, "cp": 75020, "type": "Voirie"}, "geometry": {"type": "Point", "coordinates": [2.386397, 48.873981]}, "record_timestamp": "2016-08-27T18:20:20+02:00"},{"datasetid": "stations_et_espaces_autolib_de_la_metropole_parisienne", "recordid": "bc2d86e460e61d6868351c59c9f2d2964b1eb6c5", "fields": {"ville": "Paris", "id_dsp": "75120-05", "id_autolib": "Paris/Gambetta/161", "adresse": "161 Avenue Gambetta", "xy": [48.870538, 2.403301], "prises_autolib": 4.0, "cp": 75020, "type": "Voirie"}, "geometry": {"type": "Point", "coordinates": [2.403301, 48.870538]}, "record_timestamp": "2016-08-27T18:20:20+02:00"},{"datasetid": "stations_et_espaces_autolib_de_la_metropole_parisienne", "recordid": "785c12e82b142d5db528bf5a4f8a5d5891d1f7b6", "fields": {"ville": "Paris", "prises_tiers_t3": 2, "id_dsp": "75120-06", "id_autolib": "Paris/Pyr\u00e9n\u00e9es/236", "adresse": "236 Rue des Pyr\u00e9n\u00e9es", "xy": [48.867501, 2.396611], "prises_autolib": 4.0, "cp": 75020, "type": "Voirie"}, "geometry": {"type": "Point", "coordinates": [2.396611, 48.867501]}, "record_timestamp": "2016-08-27T18:20:20+02:00"},{"datasetid": "stations_et_espaces_autolib_de_la_metropole_parisienne", "recordid": "7f9143fcca21f7054b4523313ea2e3b5f8e900a3", "fields": {"ville": "Paris", "prises_tiers_t3": 1, "id_dsp": "75120-10", "id_autolib": "Paris/Gu\u00e9briant/6", "adresse": "6 rue Gu\u00e9briant", "xy": [48.873146, 2.409572], "prises_autolib": 4.0, "cp": 75020, "type": "Voirie"}, "geometry": {"type": "Point", "coordinates": [2.409572, 48.873146]}, "record_timestamp": "2016-08-27T18:20:20+02:00"},{"datasetid": "stations_et_espaces_autolib_de_la_metropole_parisienne", "recordid": "fcc2c3eb8c32cb8a1bc5d4db999d632d484c7ec3", "fields": {"ville": "Paris", "prises_tiers_t3": 2, "id_dsp": "75120-11", "id_autolib": "Paris/Gambetta/1", "adresse": "1 Avenue Gambetta", "xy": [48.863305, 2.388736], "prises_autolib": 4.0, "cp": 75020, "type": "Voirie"}, "geometry": {"type": "Point", "coordinates": [2.388736, 48.863305]}, "record_timestamp": "2016-08-27T18:20:20+02:00"},{"datasetid": "stations_et_espaces_autolib_de_la_metropole_parisienne", "recordid": "6c7a9f3362cf00a1d348fd442610cff7ac06f473", "fields": {"ville": "Paris", "prises_tiers_t3": 1, "id_dsp": "75120-16", "id_autolib": "Paris/Maurice Berteaux/2", "adresse": "2 rue Maurice Berteaux", "xy": [48.867867, 2.409988], "prises_autolib": 4.0, "cp": 75020, "type": "Voirie"}, "geometry": {"type": "Point", "coordinates": [2.409988, 48.867867]}, "record_timestamp": "2016-08-27T18:20:20+02:00"},{"datasetid": "stations_et_espaces_autolib_de_la_metropole_parisienne", "recordid": "4827265685841d07c29f3a0917f3a3b5307cdb1d", "fields": {"ville": "Paris", "prises_tiers_t3": 1, "id_dsp": "75120-17", "id_autolib": "Paris/Pyr\u00e9n\u00e9es/137", "adresse": "137 Rue des Pyr\u00e9n\u00e9es", "xy": [48.858152, 2.403259], "prises_autolib": 4.0, "cp": 75020, "type": "Voirie", "abri": "1.0"}, "geometry": {"type": "Point", "coordinates": [2.403259, 48.858152]}, "record_timestamp": "2016-08-27T18:20:20+02:00"},{"datasetid": "stations_et_espaces_autolib_de_la_metropole_parisienne", "recordid": "9cbf444952216908cacd8fbb0ffd439579e18c9b", "fields": {"ville": "Paris", "prises_tiers_t3": 2, "id_dsp": "75120-18", "id_autolib": "Paris/Monte Cristo/24", "adresse": "24 rue Monte Cristo", "xy": [48.856007, 2.397728], "prises_autolib": 4.0, "cp": 75020, "type": "Voirie"}, "geometry": {"type": "Point", "coordinates": [2.397728, 48.856007]}, "record_timestamp": "2016-08-27T18:20:20+02:00"},{"datasetid": "stations_et_espaces_autolib_de_la_metropole_parisienne", "recordid": "cfff29ed0d1bfa68f69fa90e98f15832bd99b48c", "fields": {"ville": "Paris", "prises_tiers_t3": 2, "id_dsp": "75120-43", "id_autolib": "Paris/Sorbier/14", "adresse": "14 rue Sorbier", "xy": [48.866898, 2.391441], "prises_autolib": 4.0, "cp": 75020, "type": "Voirie"}, "geometry": {"type": "Point", "coordinates": [2.391441, 48.866898]}, "record_timestamp": "2016-08-27T18:20:20+02:00"},{"datasetid": "stations_et_espaces_autolib_de_la_metropole_parisienne", "recordid": "73b761bae743a3eed25be26253a44bdd5a857146", "fields": {"ville": "Le Chesnay", "id_dsp": "78158-02", "id_autolib": "Le Chesnay/Dutartre/58", "adresse": "58 avenue Dutartre", "xy": [48.825645, 2.118372], "prises_autolib": 6.0, "cp": 78150, "type": "Voirie"}, "geometry": {"type": "Point", "coordinates": [2.118372, 48.825645]}, "record_timestamp": "2016-08-27T18:20:20+02:00"},{"datasetid": "stations_et_espaces_autolib_de_la_metropole_parisienne", "recordid": "0e0f9c3ff0638dd404c592a3ceb743889aacfeee", "fields": {"ville": "Le Chesnay", "id_dsp": "78158-05", "id_autolib": "Le Chesnay/Leclerc/2", "adresse": "2 avenue du G\u00e9n\u00e9ral Leclerc", "xy": [48.816015, 2.129488], "prises_autolib": 5.0, "cp": 78150, "type": "Voirie"}, "geometry": {"type": "Point", "coordinates": [2.129488, 48.816015]}, "record_timestamp": "2016-08-27T18:20:20+02:00"},{"datasetid": "stations_et_espaces_autolib_de_la_metropole_parisienne", "recordid": "fb0ba21b3a3f3346b50d20ab9ea35d8bbb6b1355", "fields": {"ville": "V\u00e9lizy Villacoublay", "id_dsp": "78640-01", "id_autolib": "V\u00e9lizy Villacoublay/Robert Wagner/17", "adresse": "17 avenue Robert Wagner", "xy": [48.784249, 2.178894], "prises_autolib": 6.0, "cp": 78140, "type": "Voirie"}, "geometry": {"type": "Point", "coordinates": [2.178894, 48.784249]}, "record_timestamp": "2016-08-27T18:20:20+02:00"},{"datasetid": "stations_et_espaces_autolib_de_la_metropole_parisienne", "recordid": "2b12ef4620117e57dcdfb9a3bda5aed96169d6fd", "fields": {"ville": "V\u00e9lizy Villacoublay", "id_dsp": "78640-03", "id_autolib": "V\u00e9lizy Villacoublay/Paul Dautier/2", "adresse": "2 rue Paul Dautier", "xy": [48.780577, 2.208813], "prises_autolib": 7.0, "cp": 78140, "type": "Voirie"}, "geometry": {"type": "Point", "coordinates": [2.208813, 48.780577]}, "record_timestamp": "2016-08-27T18:20:20+02:00"},{"datasetid": "stations_et_espaces_autolib_de_la_metropole_parisienne", "recordid": "90eb6e973baf3c38bcf1941b57b2f77856791e2f", "fields": {"ville": "Verri\u00e8res-le-Buisson", "prises_tiers_t3": 1, "id_dsp": "91645-01", "id_autolib": "Verri\u00e8res-le-Buisson/Pr\u00e9-Hauts/1", "adresse": "1 Place des Pr\u00e9-Hauts", "xy": [48.739204, 2.246094], "prises_autolib": 5.0, "cp": 91370, "type": "Voirie", "abri": "1.0"}, "geometry": {"type": "Point", "coordinates": [2.246094, 48.739204]}, "record_timestamp": "2016-08-27T18:20:20+02:00"},{"datasetid": "stations_et_espaces_autolib_de_la_metropole_parisienne", "recordid": "bbfe6b815e86d0b03f03fb1e1b4f04abe07e6d32", "fields": {"ville": "Verri\u00e8res-le-Buisson", "prises_tiers_t3": 1, "id_dsp": "91645-02", "id_autolib": "Verri\u00e8res-le-Buisson/Mar\u00e9chal Foch/56", "adresse": "56 boulevard du Mar\u00e9chal Foch", "xy": [48.7458, 2.269204], "prises_autolib": 6.0, "cp": 91370, "type": "Voirie"}, "geometry": {"type": "Point", "coordinates": [2.269204, 48.7458]}, "record_timestamp": "2016-08-27T18:20:20+02:00"},{"datasetid": "stations_et_espaces_autolib_de_la_metropole_parisienne", "recordid": "b83c080795ab5eba61000be8e0ef957367ea6f35", "fields": {"ville": "Yerres", "prises_tiers_t3": 1, "id_dsp": "91691-02", "id_autolib": "Yerres/Charles-de-Gaulle/1", "adresse": "1 rue Charles-de-Gaulle", "xy": [48.714732, 2.4932], "prises_autolib": 6.0, "cp": 91330, "type": "Voirie"}, "geometry": {"type": "Point", "coordinates": [2.4932, 48.714732]}, "record_timestamp": "2016-08-27T18:20:20+02:00"},{"datasetid": "stations_et_espaces_autolib_de_la_metropole_parisienne", "recordid": "801b4f01ef928c9d6afe38f94e656bdb78ee023b", "fields": {"ville": "Antony", "id_dsp": "92002-02", "id_autolib": "Antony/Velpeau/14", "adresse": "14 rue Velpeau", "xy": [48.754954, 2.301415], "prises_autolib": 6.0, "cp": 92160, "type": "Voirie"}, "geometry": {"type": "Point", "coordinates": [2.301415, 48.754954]}, "record_timestamp": "2016-08-27T18:20:20+02:00"},{"datasetid": "stations_et_espaces_autolib_de_la_metropole_parisienne", "recordid": "58c0d2540d13fdc675895666116a2b2451b8c705", "fields": {"ville": "Asni\u00e8res-sur-Seine", "id_dsp": "92004-05", "id_autolib": "Asni\u00e8res-sur-Seine/Jean-Jacques Rousseau/2", "adresse": "2 Rue Jean-Jacques Rousseau", "xy": [48.912594, 2.29479], "prises_autolib": 6.0, "cp": 92600, "type": "Voirie"}, "geometry": {"type": "Point", "coordinates": [2.29479, 48.912594]}, "record_timestamp": "2016-08-27T18:20:20+02:00"},{"datasetid": "stations_et_espaces_autolib_de_la_metropole_parisienne", "recordid": "8823048e8545fb38031edb502f45a0fb2e046a96", "fields": {"ville": "Asni\u00e8res-sur-Seine", "id_dsp": "92004-13", "id_autolib": "Asni\u00e8res-sur-Seine/Denfert Rochereau/8", "adresse": "8 Rue Denfert Rochereau", "xy": [48.906949, 2.269449], "prises_autolib": 6.0, "cp": 92600, "type": "Voirie"}, "geometry": {"type": "Point", "coordinates": [2.269449, 48.906949]}, "record_timestamp": "2016-08-27T18:20:20+02:00"},{"datasetid": "stations_et_espaces_autolib_de_la_metropole_parisienne", "recordid": "62a746ed84a36d080aea7aab27a7265aa3ecf797", "fields": {"ville": "Asni\u00e8res-sur-Seine", "id_dsp": "92004-14", "id_autolib": "Asni\u00e8res-sur-Seine/Beno\u00eet Malon/8", "adresse": "8 Rue Beno\u00eet Malon", "xy": [48.909528, 2.275584], "prises_autolib": 6.0, "cp": 92600, "type": "Voirie"}, "geometry": {"type": "Point", "coordinates": [2.275584, 48.909528]}, "record_timestamp": "2016-08-27T18:20:20+02:00"},{"datasetid": "stations_et_espaces_autolib_de_la_metropole_parisienne", "recordid": "b8186e903c1e02298a4e9d446980d8295494e31f", "fields": {"ville": "Bagneux", "id_dsp": "92007-02", "id_autolib": "Bagneux/Ren\u00e9 Cros/65", "adresse": "65 Rue Ren\u00e9 Cros", "prises_autolib": 6.0, "cp": 92220, "type": "Voirie"}, "record_timestamp": "2016-08-27T18:20:20+02:00"},{"datasetid": "stations_et_espaces_autolib_de_la_metropole_parisienne", "recordid": "1bab4ddd750c2b18d386872dc6abd6ba9e26da59", "fields": {"ville": "Bagneux", "id_dsp": "92007-07", "id_autolib": "Bagneux/Louis Pasteur/17", "adresse": "17 Avenue Louis Pasteur", "xy": [48.799864, 2.318337], "prises_autolib": 6.0, "cp": 92220, "type": "Voirie"}, "geometry": {"type": "Point", "coordinates": [2.318337, 48.799864]}, "record_timestamp": "2016-08-27T18:20:20+02:00"},{"datasetid": "stations_et_espaces_autolib_de_la_metropole_parisienne", "recordid": "8852e23da346d2ec982d1b48a1a51ba84b3bb3e1", "fields": {"ville": "Bagneux", "id_dsp": "92007-13", "id_autolib": "Bagneux/Mathurins/2", "adresse": "2 rue des Mathurins", "xy": [48.793942, 2.306385], "prises_autolib": 6.0, "cp": 92220, "type": "Voirie"}, "geometry": {"type": "Point", "coordinates": [2.306385, 48.793942]}, "record_timestamp": "2016-08-27T18:20:20+02:00"},{"datasetid": "stations_et_espaces_autolib_de_la_metropole_parisienne", "recordid": "392f84567126f3efaa59d66e59507be6636e51d2", "fields": {"ville": "Bois-Colombes", "id_dsp": "92009-02", "id_autolib": "Bois-Colombes/Raoul Nordling/16", "adresse": "16 rue Raoul Nordling", "xy": [48.906192, 2.264092], "prises_autolib": 6.0, "cp": 92270, "type": "Voirie"}, "geometry": {"type": "Point", "coordinates": [2.264092, 48.906192]}, "record_timestamp": "2016-08-27T18:20:20+02:00"},{"datasetid": "stations_et_espaces_autolib_de_la_metropole_parisienne", "recordid": "3b6ed1794d97a1d6266ddbec1383299cbcf2d564", "fields": {"ville": "Boulogne-Billancourt", "id_dsp": "92012-07", "id_autolib": "Boulogne-Billancourt/Abel Gance/6", "adresse": "6 place Abel Gance", "xy": [48.833833, 2.258159], "prises_autolib": 6.0, "cp": 92100, "type": "Voirie"}, "geometry": {"type": "Point", "coordinates": [2.258159, 48.833833]}, "record_timestamp": "2016-08-27T18:20:20+02:00"},{"datasetid": "stations_et_espaces_autolib_de_la_metropole_parisienne", "recordid": "35512fc1635562633022cf8bc9dcdcfd52a86754", "fields": {"ville": "Boulogne-Billancourt", "id_dsp": "92012-08", "id_autolib": "Boulogne-Billancourt/Andr\u00e9 Morizet/121", "adresse": "121 avenue Andr\u00e9 Morizet", "xy": [48.837077, 2.236243], "prises_autolib": 6.0, "cp": 92100, "type": "Voirie"}, "geometry": {"type": "Point", "coordinates": [2.236243, 48.837077]}, "record_timestamp": "2016-08-27T18:20:20+02:00"},{"datasetid": "stations_et_espaces_autolib_de_la_metropole_parisienne", "recordid": "acb2587bf794dc101ae26d3e77fff95711685cb3", "fields": {"ville": "Boulogne-Billancourt", "id_dsp": "92012-16", "id_autolib": "Boulogne-Billancourt/Jean Jaur\u00e8s/245", "adresse": "245 boulevard Jean Jaur\u00e8s", "xy": [48.82875, 2.246386], "prises_autolib": 6.0, "cp": 92100, "type": "Voirie"}, "geometry": {"type": "Point", "coordinates": [2.246386, 48.82875]}, "record_timestamp": "2016-08-27T18:20:20+02:00"},{"datasetid": "stations_et_espaces_autolib_de_la_metropole_parisienne", "recordid": "a3eebcde2406bd026519c2c22814143a49c76234", "fields": {"ville": "Boulogne-Billancourt", "id_dsp": "92012-30", "id_autolib": "Boulogne-Billancourt/Reine/12", "adresse": "12 bis Route de la Reine", "xy": [48.840746, 2.240467], "prises_autolib": 6.0, "cp": 92100, "type": "Voirie"}, "geometry": {"type": "Point", "coordinates": [2.240467, 48.840746]}, "record_timestamp": "2016-08-27T18:20:20+02:00"},{"datasetid": "stations_et_espaces_autolib_de_la_metropole_parisienne", "recordid": "ad6f1fbe1176e5f97c848b542f5289c01b6a294d", "fields": {"ville": "Ch\u00e2tillon", "id_dsp": "92020-01", "id_autolib": "Ch\u00e2tillon/Stalingrad/5", "adresse": "5 boulevard de Stalingrad", "xy": [48.811022, 2.298848], "prises_autolib": 5.0, "cp": 92320, "type": "Voirie"}, "geometry": {"type": "Point", "coordinates": [2.298848, 48.811022]}, "record_timestamp": "2016-08-27T18:20:20+02:00"},{"datasetid": "stations_et_espaces_autolib_de_la_metropole_parisienne", "recordid": "31e773eed9196d352176ec56ea902a8fac9ecbe2", "fields": {"ville": "Ch\u00e2tillon", "id_dsp": "92020-05", "id_autolib": "Ch\u00e2tillon/Libert\u00e9/100", "adresse": "100 boulevard de la LIbert\u00e9", "xy": [48.799068, 2.29405], "prises_autolib": 7.0, "cp": 92320, "type": "Voirie"}, "geometry": {"type": "Point", "coordinates": [2.29405, 48.799068]}, "record_timestamp": "2016-08-27T18:20:20+02:00"},{"datasetid": "stations_et_espaces_autolib_de_la_metropole_parisienne", "recordid": "576ca67e9b2b4a28252f147ac2fb5f85bc2507af", "fields": {"ville": "Clamart", "id_dsp": "92023-03", "id_autolib": "Clamart/Jean Jaur\u00e8s/255", "adresse": "255 Avenue Jean Jaur\u00e8s", "xy": [48.813594, 2.271954], "prises_autolib": 6.0, "cp": 92140, "type": "Voirie"}, "geometry": {"type": "Point", "coordinates": [2.271954, 48.813594]}, "record_timestamp": "2016-08-27T18:20:20+02:00"},{"datasetid": "stations_et_espaces_autolib_de_la_metropole_parisienne", "recordid": "5e76ac9a005ae1ed1111a18cdc870254b0791f61", "fields": {"ville": "Clamart", "id_dsp": "92023-04", "id_autolib": "Clamart/Verdun/1", "adresse": "1 rue de Verdun", "xy": [48.813161, 2.258799], "prises_autolib": 6.0, "cp": 92140, "type": "Voirie"}, "geometry": {"type": "Point", "coordinates": [2.258799, 48.813161]}, "record_timestamp": "2016-08-27T18:20:20+02:00"},{"datasetid": "stations_et_espaces_autolib_de_la_metropole_parisienne", "recordid": "3a70091a3ad0229786b803bf44285cb01be81af6", "fields": {"ville": "Clamart", "id_dsp": "92023-05", "id_autolib": "Clamart/Paul Vaillant Couturier/68", "adresse": "68 rue Paul Vaillant Couturier", "xy": [48.804939, 2.259906], "prises_autolib": 6.0, "cp": 92140, "type": "Voirie"}, "geometry": {"type": "Point", "coordinates": [2.259906, 48.804939]}, "record_timestamp": "2016-08-27T18:20:20+02:00"},{"datasetid": "stations_et_espaces_autolib_de_la_metropole_parisienne", "recordid": "574a0bbf13da653654dc3303aa3ce54bd0b8f633", "fields": {"ville": "Clamart", "id_dsp": "92023-08", "id_autolib": "Clamart/De Gaulle/118", "adresse": "118 avenue du G\u00e9n\u00e9ral De Gaulle", "xy": [48.790601, 2.263903], "prises_autolib": 6.0, "cp": 92140, "type": "Voirie"}, "geometry": {"type": "Point", "coordinates": [2.263903, 48.790601]}, "record_timestamp": "2016-08-27T18:20:20+02:00"},{"datasetid": "stations_et_espaces_autolib_de_la_metropole_parisienne", "recordid": "17a79252c0ce6868776794ff5f45b10da6f5538b", "fields": {"ville": "Colombes", "id_dsp": "92025-03", "id_autolib": "Colombes/Jules Michelet/77", "adresse": "77 rue Jules Michelet", "xy": [48.932518, 2.271278], "prises_autolib": 6.0, "cp": 92700, "type": "Voirie"}, "geometry": {"type": "Point", "coordinates": [2.271278, 48.932518]}, "record_timestamp": "2016-08-27T18:20:20+02:00"},{"datasetid": "stations_et_espaces_autolib_de_la_metropole_parisienne", "recordid": "489d5f9db4ea0b31f69b9c41cfa99e3fd74a13c0", "fields": {"ville": "Colombes", "id_dsp": "92025-05", "id_autolib": "Colombes/Henri Barbusse/16", "adresse": "16 Avenue Henri Barbusse", "xy": [48.921561, 2.25252], "prises_autolib": 6.0, "cp": 92700, "type": "Voirie"}, "geometry": {"type": "Point", "coordinates": [2.25252, 48.921561]}, "record_timestamp": "2016-08-27T18:20:20+02:00"},{"datasetid": "stations_et_espaces_autolib_de_la_metropole_parisienne", "recordid": "db2528adb6cce5cfefca9cc20b1932f850b4ce76", "fields": {"ville": "Colombes", "id_dsp": "92025-06", "id_autolib": "Colombes/Gounod/1", "adresse": "1 Rue Gounod", "xy": [48.923616, 2.248436], "prises_autolib": 6.0, "cp": 92700, "type": "Voirie"}, "geometry": {"type": "Point", "coordinates": [2.248436, 48.923616]}, "record_timestamp": "2016-08-27T18:20:20+02:00"},{"datasetid": "stations_et_espaces_autolib_de_la_metropole_parisienne", "recordid": "21750d5191c738fe23590fef9348cadacd67829f", "fields": {"ville": "Colombes", "id_dsp": "92025-09", "id_autolib": "Colombes/Renouillers/183", "adresse": "183 Rue des Renouillers", "xy": [48.923595, 2.236862], "prises_autolib": 6.0, "cp": 92700, "type": "Voirie"}, "geometry": {"type": "Point", "coordinates": [2.236862, 48.923595]}, "record_timestamp": "2016-08-27T18:20:20+02:00"},{"datasetid": "stations_et_espaces_autolib_de_la_metropole_parisienne", "recordid": "b97e867854f0077976e7a2a572e34c988c9ad6fd", "fields": {"ville": "Colombes", "id_dsp": "92025-13", "id_autolib": "Colombes/Seine/52", "adresse": "52 rue de Seine", "xy": [48.916288, 2.251659], "prises_autolib": 5.0, "cp": 92700, "type": "Voirie"}, "geometry": {"type": "Point", "coordinates": [2.251659, 48.916288]}, "record_timestamp": "2016-08-27T18:20:20+02:00"},{"datasetid": "stations_et_espaces_autolib_de_la_metropole_parisienne", "recordid": "78426ceed50cace8d139838cd7e9ec731a65b91a", "fields": {"ville": "Colombes", "id_dsp": "92025-15", "id_autolib": "Colombes/Pierre Brossolette/42", "adresse": "42 rue Pierre Brossolette", "xy": [48.909585, 2.238659], "prises_autolib": 6.0, "cp": 92700, "type": "Voirie"}, "geometry": {"type": "Point", "coordinates": [2.238659, 48.909585]}, "record_timestamp": "2016-08-27T18:20:20+02:00"},{"datasetid": "stations_et_espaces_autolib_de_la_metropole_parisienne", "recordid": "604bf2c88d6c1695501c25730104a014e55c1da6", "fields": {"ville": "Fontenay-aux-Roses", "id_dsp": "92032-04", "id_autolib": "Fontenay-aux-Roses/Division Leclerc/31", "adresse": "31 avenue de la Division Leclerc", "xy": [48.794803, 2.274205], "prises_autolib": 7.0, "cp": 92260, "type": "Voirie"}, "geometry": {"type": "Point", "coordinates": [2.274205, 48.794803]}, "record_timestamp": "2016-08-27T18:20:20+02:00"},{"datasetid": "stations_et_espaces_autolib_de_la_metropole_parisienne", "recordid": "e69b5b708a7241d12a1158d3dbd8031c839c6566", "fields": {"ville": "La Garenne-Colombes", "id_dsp": "92035-02", "id_autolib": "La Garenne-Colombes/National/90", "adresse": "90 boulevard National", "xy": [48.908501, 2.237591], "prises_autolib": 6.0, "cp": 92250, "type": "Voirie"}, "geometry": {"type": "Point", "coordinates": [2.237591, 48.908501]}, "record_timestamp": "2016-08-27T18:20:20+02:00"},{"datasetid": "stations_et_espaces_autolib_de_la_metropole_parisienne", "recordid": "e90792bb80f2bf6b98021a276d03945ec245e0ed", "fields": {"ville": "La Garenne-Colombes", "id_dsp": "92035-03", "id_autolib": "La Garenne-Colombes/Transvaal/3", "adresse": "3 Rue du Transvaal", "xy": [48.913462, 2.257245], "prises_autolib": 6.0, "cp": 92250, "type": "Voirie"}, "geometry": {"type": "Point", "coordinates": [2.257245, 48.913462]}, "record_timestamp": "2016-08-27T18:20:20+02:00"},{"datasetid": "stations_et_espaces_autolib_de_la_metropole_parisienne", "recordid": "fd74124489c1940d6aef4b33823befc0d3766a79", "fields": {"ville": "La Garenne-Colombes", "id_dsp": "92035-04", "id_autolib": "La Garenne-Colombes/Colombes/126", "adresse": "126 rue de Colombes", "xy": [48.907949, 2.244786], "prises_autolib": 7.0, "cp": 92250, "type": "Voirie"}, "geometry": {"type": "Point", "coordinates": [2.244786, 48.907949]}, "record_timestamp": "2016-08-27T18:20:20+02:00"},{"datasetid": "stations_et_espaces_autolib_de_la_metropole_parisienne", "recordid": "930bbe9ce52d9cad012da40575a6744ce9e22e95", "fields": {"ville": "La Garenne-Colombes", "id_dsp": "92035-05", "id_autolib": "La Garenne-Colombes/National/31", "adresse": "31 boulevard National", "xy": [48.903855, 2.239145], "prises_autolib": 6.0, "cp": 92250, "type": "Voirie"}, "geometry": {"type": "Point", "coordinates": [2.239145, 48.903855]}, "record_timestamp": "2016-08-27T18:20:20+02:00"},{"datasetid": "stations_et_espaces_autolib_de_la_metropole_parisienne", "recordid": "b2c0ddd475907d8250890d5c30fa9cac25892cc4", "fields": {"ville": "Issy-les-Moulineaux", "id_dsp": "92040-04", "id_autolib": "Issy-les-Moulineaux/Rodin/66", "adresse": "66 boulevard Rodin", "xy": [48.818799, 2.257864], "prises_autolib": 6.0, "cp": 92130, "type": "Voirie"}, "geometry": {"type": "Point", "coordinates": [2.257864, 48.818799]}, "record_timestamp": "2016-08-27T18:20:20+02:00"},{"datasetid": "stations_et_espaces_autolib_de_la_metropole_parisienne", "recordid": "b0d49629e0f9d61a8145f5beddbce3acf54a1f47", "fields": {"ville": "Issy-les-Moulineaux", "id_dsp": "92040-11", "id_autolib": "Issy-les-Moulineaux/Promenade du Verger/166", "adresse": "166 promenade du Verger", "prises_autolib": 6.0, "cp": 92130, "type": "Voirie"}, "record_timestamp": "2016-08-27T18:20:20+02:00"},{"datasetid": "stations_et_espaces_autolib_de_la_metropole_parisienne", "recordid": "9d39f15477bd113b9f91cdebdf405faca79ba604", "fields": {"ville": "Issy-les-Moulineaux", "id_dsp": "92040-19", "id_autolib": "Issy-les-Moulineaux/Champ Chardon/44", "adresse": "44 Rue de Champ Chardon", "xy": [48.82212, 2.252386], "prises_autolib": 6.0, "cp": 92130, "type": "Voirie"}, "geometry": {"type": "Point", "coordinates": [2.252386, 48.82212]}, "record_timestamp": "2016-08-27T18:20:20+02:00"},{"datasetid": "stations_et_espaces_autolib_de_la_metropole_parisienne", "recordid": "e90cd9ac38ea3508abfcfbac78e55713d521396b", "fields": {"ville": "Issy-les-Moulineaux", "id_dsp": "92040-20", "id_autolib": "Issy-les-Moulineaux/De Gaulle/88", "adresse": "88 avenue du G\u00e9n\u00e9ral de Gaulle", "xy": [48.818714, 2.277641], "prises_autolib": 6.0, "cp": 92130, "type": "Voirie"}, "geometry": {"type": "Point", "coordinates": [2.277641, 48.818714]}, "record_timestamp": "2016-08-27T18:20:20+02:00"},{"datasetid": "stations_et_espaces_autolib_de_la_metropole_parisienne", "recordid": "c7c19252c34974653d28f0370f636d3525a7b653", "fields": {"ville": "Issy-les-Moulineaux", "id_dsp": "92040-22", "id_autolib": "Issy-les-Moulineaux/\u00c9galit\u00e9/57", "adresse": "57 Rue de l'\u00c9galit\u00e9", "xy": [48.816808, 2.260782], "prises_autolib": 6.0, "cp": 92130, "type": "Voirie"}, "geometry": {"type": "Point", "coordinates": [2.260782, 48.816808]}, "record_timestamp": "2016-08-27T18:20:20+02:00"},{"datasetid": "stations_et_espaces_autolib_de_la_metropole_parisienne", "recordid": "c07b56ae0279e49dcb0d953203a62872669ef8fc", "fields": {"ville": "Malakoff", "id_dsp": "92046-07", "id_autolib": "Malakoff/Legrand/1", "adresse": "1 Rue Legrand", "xy": [48.824223, 2.303989], "prises_autolib": 5.0, "cp": 92240, "type": "Voirie"}, "geometry": {"type": "Point", "coordinates": [2.303989, 48.824223]}, "record_timestamp": "2016-08-27T18:20:20+02:00"},{"datasetid": "stations_et_espaces_autolib_de_la_metropole_parisienne", "recordid": "7b69e3185714027bff066452a0a0752e27f59539", "fields": {"ville": "Meudon", "id_dsp": "92048-01", "id_autolib": "Meudon/Ponceau/2", "adresse": "2 rue Ponceau", "xy": [48.812414, 2.237817], "prises_autolib": 4.0, "cp": 92190, "type": "Voirie"}, "geometry": {"type": "Point", "coordinates": [2.237817, 48.812414]}, "record_timestamp": "2016-08-27T18:20:20+02:00"},{"datasetid": "stations_et_espaces_autolib_de_la_metropole_parisienne", "recordid": "9e2d46ae54ac0f9e67587800922c7d5cfd3cc66a", "fields": {"ville": "Meudon", "id_dsp": "92048-03", "id_autolib": "Meudon/Marcel All\u00e9got/12", "adresse": "12 rue Marcel All\u00e9got", "xy": [48.82122, 2.227455], "prises_autolib": 6.0, "cp": 92190, "type": "Voirie"}, "geometry": {"type": "Point", "coordinates": [2.227455, 48.82122]}, "record_timestamp": "2016-08-27T18:20:20+02:00"},{"datasetid": "stations_et_espaces_autolib_de_la_metropole_parisienne", "recordid": "007ab361bab3b25b30b73b61372537be7830390b", "fields": {"ville": "Meudon-la-For\u00eat", "id_dsp": "92048-07", "id_autolib": "Meudon/Jeanne Braconnier/3", "adresse": "3 rue Jeanne Braconnier", "xy": [48.789773, 2.21188], "prises_autolib": 6.0, "cp": 92360, "type": "Voirie"}, "geometry": {"type": "Point", "coordinates": [2.21188, 48.789773]}, "record_timestamp": "2016-08-27T18:20:20+02:00"},{"datasetid": "stations_et_espaces_autolib_de_la_metropole_parisienne", "recordid": "00478a36e2ee3ae1583c366504dad836295172d3", "fields": {"ville": "Meudon-la-For\u00eat", "id_dsp": "92048-08", "id_autolib": "Meudon/Mar\u00e9chal Juin/18", "adresse": "18 avenue du Mar\u00e9chal Juin", "xy": [48.787682, 2.217136], "prises_autolib": 6.0, "cp": 92360, "type": "Voirie"}, "geometry": {"type": "Point", "coordinates": [2.217136, 48.787682]}, "record_timestamp": "2016-08-27T18:20:20+02:00"},{"datasetid": "stations_et_espaces_autolib_de_la_metropole_parisienne", "recordid": "35cee5b912cd99ab667a849250f052232f33620a", "fields": {"ville": "Montrouge", "id_dsp": "92049-02", "id_autolib": "Montrouge/Jean Jaur\u00e8s/51", "adresse": "51 avenue Jean Jaur\u00e8s", "xy": [48.816563, 2.313118], "prises_autolib": 6.0, "cp": 92120, "type": "Voirie"}, "geometry": {"type": "Point", "coordinates": [2.313118, 48.816563]}, "record_timestamp": "2016-08-27T18:20:20+02:00"},{"datasetid": "stations_et_espaces_autolib_de_la_metropole_parisienne", "recordid": "129d550de261605d671a9f084ef3ed47fc2fdab1", "fields": {"ville": "Nanterre", "id_dsp": "92050-02", "id_autolib": "Nanterre/P\u00e9saro/22", "adresse": "22 Boulevard de P\u00e9saro", "xy": [48.894483, 2.224904], "prises_autolib": 6.0, "cp": 92000, "type": "Voirie"}, "geometry": {"type": "Point", "coordinates": [2.224904, 48.894483]}, "record_timestamp": "2016-08-27T18:20:20+02:00"},{"datasetid": "stations_et_espaces_autolib_de_la_metropole_parisienne", "recordid": "fb0e0a4c0eb589ac4573d17cb88f6412c9158cdb", "fields": {"ville": "Nanterre", "id_dsp": "92050-09", "id_autolib": "Nanterre/Gare/9", "adresse": "9 Rue de la Gare", "xy": [48.901916, 2.202597], "prises_autolib": 6.0, "cp": 92000, "type": "Voirie"}, "geometry": {"type": "Point", "coordinates": [2.202597, 48.901916]}, "record_timestamp": "2016-08-27T18:20:20+02:00"},{"datasetid": "stations_et_espaces_autolib_de_la_metropole_parisienne", "recordid": "e7066a9f9c0fc047838d93acb896774d54bf466f", "fields": {"ville": "Nanterre", "id_dsp": "92050-11", "id_autolib": "Nanterre/R\u00e9publique/403", "adresse": "403 Avenue de la R\u00e9publique", "xy": [48.912309, 2.223763], "prises_autolib": 6.0, "cp": 92000, "type": "Voirie"}, "geometry": {"type": "Point", "coordinates": [2.223763, 48.912309]}, "record_timestamp": "2016-08-27T18:20:20+02:00"},{"datasetid": "stations_et_espaces_autolib_de_la_metropole_parisienne", "recordid": "78e25029ed59dec0879059ac680f25d4bb22faf4", "fields": {"ville": "Nanterre", "id_dsp": "92050-18", "id_autolib": "Nanterre/Waldeck Rochet/8", "adresse": "8 rue Waldeck Rochet", "xy": [48.89035, 2.197793], "prises_autolib": 6.0, "cp": 92000, "type": "Voirie"}, "geometry": {"type": "Point", "coordinates": [2.197793, 48.89035]}, "record_timestamp": "2016-08-27T18:20:20+02:00"},{"datasetid": "stations_et_espaces_autolib_de_la_metropole_parisienne", "recordid": "a7b8201b10ac2223856bc21fb1c5b47b5ab239c7", "fields": {"ville": "Nanterre", "id_dsp": "92050-19", "id_autolib": "Nanterre/Pablo Neruda/6", "adresse": "6 Rue Pablo Neruda", "xy": [48.895522, 2.2162], "prises_autolib": 6.0, "cp": 92000, "type": "Voirie"}, "geometry": {"type": "Point", "coordinates": [2.2162, 48.895522]}, "record_timestamp": "2016-08-27T18:20:20+02:00"},{"datasetid": "stations_et_espaces_autolib_de_la_metropole_parisienne", "recordid": "1898d26d9647acdfec41239d326a949270033f6c", "fields": {"ville": "Nanterre", "id_dsp": "92050-23", "id_autolib": "Nanterre/Rigault/1", "adresse": "1 Rue Rigault", "xy": [48.893288, 2.197917], "prises_autolib": 6.0, "cp": 92000, "type": "Voirie"}, "geometry": {"type": "Point", "coordinates": [2.197917, 48.893288]}, "record_timestamp": "2016-08-27T18:20:20+02:00"},{"datasetid": "stations_et_espaces_autolib_de_la_metropole_parisienne", "recordid": "045794d8dd4a21724566f4d3bc6e30f79746a62b", "fields": {"ville": "Nanterre", "id_dsp": "92050-26", "id_autolib": "Nanterre/Lens/13", "adresse": "13 Rue de Lens", "xy": [48.900048, 2.22403], "prises_autolib": 6.0, "cp": 92000, "type": "Voirie"}, "geometry": {"type": "Point", "coordinates": [2.22403, 48.900048]}, "record_timestamp": "2016-08-27T18:20:20+02:00"},{"datasetid": "stations_et_espaces_autolib_de_la_metropole_parisienne", "recordid": "35b464f0deeef68f51cba583d55279345df6215a", "fields": {"ville": "Nanterre", "id_dsp": "92050-30", "id_autolib": "Nanterre/Salvador Allende/123", "adresse": "123 Rue Salvador Allende", "xy": [48.894156, 2.225452], "prises_autolib": 7.0, "cp": 92000, "type": "Voirie"}, "geometry": {"type": "Point", "coordinates": [2.225452, 48.894156]}, "record_timestamp": "2016-08-27T18:20:20+02:00"},{"datasetid": "stations_et_espaces_autolib_de_la_metropole_parisienne", "recordid": "f29df181477845cb9851a47eaca4a2ad3853a3fb", "fields": {"ville": "Nanterre", "id_dsp": "92050-33", "id_autolib": "Nanterre/\u00c9mile Zola/61", "adresse": "61 Boulevard \u00c9mile Zola", "xy": [48.895769, 2.214099], "prises_autolib": 6.0, "cp": 92000, "type": "Voirie"}, "geometry": {"type": "Point", "coordinates": [2.214099, 48.895769]}, "record_timestamp": "2016-08-27T18:20:20+02:00"},{"datasetid": "stations_et_espaces_autolib_de_la_metropole_parisienne", "recordid": "41ad2e41f260df4d73974e1fdd87789f3fa27872", "fields": {"ville": "Plessis-Robinson", "id_dsp": "92060-02", "id_autolib": "Plessis-Robinson/Chauss\u00e9e de l'Etang/109", "adresse": "109 chauss\u00e9e de l'Etang", "xy": [48.783616, 2.271361], "prises_autolib": 5.0, "cp": 92350, "type": "Voirie"}, "geometry": {"type": "Point", "coordinates": [2.271361, 48.783616]}, "record_timestamp": "2016-08-27T18:20:20+02:00"},{"datasetid": "stations_et_espaces_autolib_de_la_metropole_parisienne", "recordid": "5feb3f5a79ebca9d9521afe9b19cd270357da5c1", "fields": {"ville": "Puteaux", "id_dsp": "92062-01", "id_autolib": "Puteaux/Dion Bouton/30", "adresse": "30 Quai de Dion Bouton", "xy": [48.8806, 2.244813], "prises_autolib": 4.0, "cp": 92800, "type": "Voirie", "abri": "1.0"}, "geometry": {"type": "Point", "coordinates": [2.244813, 48.8806]}, "record_timestamp": "2016-08-27T18:20:20+02:00"},{"datasetid": "stations_et_espaces_autolib_de_la_metropole_parisienne", "recordid": "c99572d79f6f7f8ae0b35e7417f68cc8ab60615a", "fields": {"ville": "Puteaux", "id_dsp": "92062-06", "id_autolib": "Puteaux/Francis de Pressens\u00e9/12", "adresse": "12 Rue Francis de Pressens\u00e9", "xy": [48.876191, 2.236073], "prises_autolib": 6.0, "cp": 92800, "type": "Voirie"}, "geometry": {"type": "Point", "coordinates": [2.236073, 48.876191]}, "record_timestamp": "2016-08-27T18:20:20+02:00"},{"datasetid": "stations_et_espaces_autolib_de_la_metropole_parisienne", "recordid": "21ee14016ddf07de05afd874b422405d88562cb1", "fields": {"ville": "Rueil-Malmaison", "id_dsp": "92063-12", "id_autolib": "Rueil-Malmaison/Paul Doumer/3", "adresse": "3 avenue Paul Doumer", "xy": [48.881119, 2.185244], "prises_autolib": 6.0, "cp": 92500, "type": "Voirie"}, "geometry": {"type": "Point", "coordinates": [2.185244, 48.881119]}, "record_timestamp": "2016-08-27T18:20:20+02:00"},{"datasetid": "stations_et_espaces_autolib_de_la_metropole_parisienne", "recordid": "ed96c8c23d77d5dd34a8d24522e5706960ecd86f", "fields": {"ville": "Rueil-Malmaison", "id_dsp": "92063-21", "id_autolib": "Rueil-Malmaison/Lieutenant Colonel Driant/11", "adresse": "11 Rue du Lieutenant Colonel Driant", "xy": [48.877848, 2.200628], "prises_autolib": 5.0, "cp": 92500, "type": "Voirie"}, "geometry": {"type": "Point", "coordinates": [2.200628, 48.877848]}, "record_timestamp": "2016-08-27T18:20:20+02:00"},{"datasetid": "stations_et_espaces_autolib_de_la_metropole_parisienne", "recordid": "7c48cdcd8afb277c970f2890dcaa2cae4f19239d", "fields": {"ville": "Saint-Cloud", "prises_tiers_t3": 1, "id_dsp": "92064-01", "id_autolib": "Saint-Cloud/Pasteur/18", "adresse": "18 rue Pasteur", "xy": [48.842072, 2.203772], "prises_autolib": 6.0, "cp": 92210, "type": "Voirie"}, "geometry": {"type": "Point", "coordinates": [2.203772, 48.842072]}, "record_timestamp": "2016-08-27T18:20:20+02:00"},{"datasetid": "stations_et_espaces_autolib_de_la_metropole_parisienne", "recordid": "4c2e75f80e7065516f29bff3f045f2632419862c", "fields": {"ville": "Sceaux", "id_dsp": "92071-03", "id_autolib": "Sceaux/Franklin Roosevelt/60", "adresse": "60 Avenue du Pr\u00e9sident Franklin Roosevelt", "xy": [48.777129, 2.296936], "prises_autolib": 6.0, "cp": 92330, "type": "Voirie"}, "geometry": {"type": "Point", "coordinates": [2.296936, 48.777129]}, "record_timestamp": "2016-08-27T18:20:20+02:00"},{"datasetid": "stations_et_espaces_autolib_de_la_metropole_parisienne", "recordid": "a2ed87dd8cf10ea3056c17d5dab544c932ba8b9b", "fields": {"ville": "Suresnes", "id_dsp": "92073-03", "id_autolib": "Suresnes/Verdun/15", "adresse": "15 Rue de Verdun", "xy": [48.871127, 2.227152], "prises_autolib": 5.0, "cp": 92150, "type": "Voirie", "abri": "1.0"}, "geometry": {"type": "Point", "coordinates": [2.227152, 48.871127]}, "record_timestamp": "2016-08-27T18:20:20+02:00"},{"datasetid": "stations_et_espaces_autolib_de_la_metropole_parisienne", "recordid": "c38d75efa1515eb87744b3018cc022395f90cb1c", "fields": {"ville": "Suresnes", "id_dsp": "92073-13", "id_autolib": "Suresnes/Fontaine du Tertre/21", "adresse": "21 avenue de la Fontaine du Tertre", "xy": [48.869965, 2.21797], "prises_autolib": 6.0, "cp": 92150, "type": "Voirie"}, "geometry": {"type": "Point", "coordinates": [2.21797, 48.869965]}, "record_timestamp": "2016-08-27T18:20:20+02:00"},{"datasetid": "stations_et_espaces_autolib_de_la_metropole_parisienne", "recordid": "c4acfd7432aaaa69b7cad7c9c7f02aadf30469df", "fields": {"ville": "Suresnes", "prises_tiers_t3": 1, "id_dsp": "92073-14", "id_autolib": "Suresnes/Marcel Monge/2", "adresse": "2 Rue Marcel Monge", "xy": [48.861409, 2.223918], "prises_autolib": 5.0, "cp": 92150, "type": "Voirie"}, "geometry": {"type": "Point", "coordinates": [2.223918, 48.861409]}, "record_timestamp": "2016-08-27T18:20:20+02:00"},{"datasetid": "stations_et_espaces_autolib_de_la_metropole_parisienne", "recordid": "c6b4a13c018a756faf42f0b25ecb7e51e9d3cb74", "fields": {"ville": "Vanves", "id_dsp": "92075-02", "id_autolib": "Vanves/Pruvot/7", "adresse": "7 Rue Pruvot", "xy": [48.822262, 2.284054], "prises_autolib": 7.0, "cp": 92170, "type": "Voirie"}, "geometry": {"type": "Point", "coordinates": [2.284054, 48.822262]}, "record_timestamp": "2016-08-27T18:20:20+02:00"},{"datasetid": "stations_et_espaces_autolib_de_la_metropole_parisienne", "recordid": "701317a2839d70461797394da8540620d059623a", "fields": {"ville": "Ville-d'Avray", "id_dsp": "92077-01", "id_autolib": "Ville-d'Avray/Charles de Gaulle/1", "adresse": "1 place Charles de Gaulle", "xy": [48.873377, 2.295581], "prises_autolib": 6.0, "cp": 92410, "type": "Voirie", "abri": "1.0"}, "geometry": {"type": "Point", "coordinates": [2.295581, 48.873377]}, "record_timestamp": "2016-08-27T18:20:20+02:00"},{"datasetid": "stations_et_espaces_autolib_de_la_metropole_parisienne", "recordid": "8f2a4c8d4f8ca5ebd243ed4fb336700712b366a5", "fields": {"ville": "Paris", "prises_tiers_t3": 2, "id_dsp": "75110-14", "id_autolib": "Paris/Saint-Vincent-de-Paul/26", "adresse": "26 rue Saint-Vincent-de-Paul", "xy": [48.881848, 2.352784], "prises_autolib": 4.0, "cp": 75010, "type": "Voirie"}, "geometry": {"type": "Point", "coordinates": [2.352784, 48.881848]}, "record_timestamp": "2016-08-27T18:20:20+02:00"},{"datasetid": "stations_et_espaces_autolib_de_la_metropole_parisienne", "recordid": "4298171477044f3349c89e0a93d57d1bbdc367fd", "fields": {"ville": "Paris", "prises_tiers_t3": 1, "id_dsp": "75110-28", "id_autolib": "Paris/Grange aux Belles/47", "adresse": "47 rue de la Grange aux Belles", "xy": [48.875988, 2.368073], "prises_autolib": 4.0, "cp": 75010, "type": "Voirie"}, "geometry": {"type": "Point", "coordinates": [2.368073, 48.875988]}, "record_timestamp": "2016-08-27T18:20:20+02:00"},{"datasetid": "stations_et_espaces_autolib_de_la_metropole_parisienne", "recordid": "e31cb387e70e817c185d3ac7453599954fe03a13", "fields": {"ville": "Paris", "prises_tiers_t3": 1, "id_dsp": "75111-09", "id_autolib": "Paris/Voltaire/236", "adresse": "236 Boulevard Voltaire", "xy": [48.851693, 2.390039], "prises_autolib": 4.0, "cp": 75011, "type": "Voirie"}, "geometry": {"type": "Point", "coordinates": [2.390039, 48.851693]}, "record_timestamp": "2016-08-27T18:20:20+02:00"},{"datasetid": "stations_et_espaces_autolib_de_la_metropole_parisienne", "recordid": "21a5ce0d34cc8a34a44c8974eb18d9b973247c0f", "fields": {"ville": "Paris", "prises_tiers_t3": 2, "id_dsp": "75111-24", "id_autolib": "Paris/Taillebourg/2", "adresse": "2 Avenue de Taillebourg", "xy": [48.849161, 2.397172], "prises_autolib": 4.0, "cp": 75011, "type": "Voirie"}, "geometry": {"type": "Point", "coordinates": [2.397172, 48.849161]}, "record_timestamp": "2016-08-27T18:20:20+02:00"},{"datasetid": "stations_et_espaces_autolib_de_la_metropole_parisienne", "recordid": "a584e914b38ae2ebff50570356a1f331f5223c0b", "fields": {"ville": "Paris", "prises_tiers_t3": 2, "id_dsp": "75111-29", "id_autolib": "Paris/Richard Lenoir/63", "adresse": "63 Boulevard Richard Lenoir", "xy": [48.860163, 2.371941], "prises_autolib": 4.0, "cp": 75011, "type": "Voirie"}, "geometry": {"type": "Point", "coordinates": [2.371941, 48.860163]}, "record_timestamp": "2016-08-27T18:20:20+02:00"},{"datasetid": "stations_et_espaces_autolib_de_la_metropole_parisienne", "recordid": "43cf25976684380ff514518eba0ba5b7267b358f", "fields": {"ville": "Paris", "id_dsp": "75111-32", "id_autolib": "Paris/Commandant Lamy/2", "adresse": "2 rue du Commandant Lamy", "xy": [48.855697, 2.374365], "prises_autolib": 4.0, "cp": 75011, "type": "Voirie"}, "geometry": {"type": "Point", "coordinates": [2.374365, 48.855697]}, "record_timestamp": "2016-08-27T18:20:20+02:00"},{"datasetid": "stations_et_espaces_autolib_de_la_metropole_parisienne", "recordid": "0370aea3f571f38b82192abf68f6325bce9c8575", "fields": {"ville": "Paris", "prises_tiers_t3": 2, "id_dsp": "75112-01", "id_autolib": "Paris/Saint-Antoine/16", "adresse": "16 Rue du Faubourg Saint-Antoine", "xy": [48.852728, 2.371006], "prises_autolib": 4.0, "cp": 75012, "type": "Voirie"}, "geometry": {"type": "Point", "coordinates": [2.371006, 48.852728]}, "record_timestamp": "2016-08-27T18:20:20+02:00"},{"datasetid": "stations_et_espaces_autolib_de_la_metropole_parisienne", "recordid": "f11547630262376844a0f895b77ade31dcdb96cb", "fields": {"ville": "Paris", "prises_tiers_t3": 1, "id_dsp": "75112-08", "id_autolib": "Paris/Diderot/24", "adresse": "24 boulevard Diderot", "xy": [48.845953, 2.374862], "prises_autolib": 4.0, "cp": 75012, "type": "Voirie", "abri": "1.0"}, "geometry": {"type": "Point", "coordinates": [2.374862, 48.845953]}, "record_timestamp": "2016-08-27T18:20:20+02:00"},{"datasetid": "stations_et_espaces_autolib_de_la_metropole_parisienne", "recordid": "e11b09e1536916b09fd143fa03a91b8fc3350fc1", "fields": {"ville": "Paris", "prises_tiers_t3": 1, "id_dsp": "75112-12", "id_autolib": "Paris/Villiot/20", "adresse": "20 Rue Villiot", "xy": [48.841472, 2.375017], "prises_autolib": 4.0, "cp": 75012, "type": "Voirie", "abri": "1.0"}, "geometry": {"type": "Point", "coordinates": [2.375017, 48.841472]}, "record_timestamp": "2016-08-27T18:20:20+02:00"},{"datasetid": "stations_et_espaces_autolib_de_la_metropole_parisienne", "recordid": "40337fd37e20e5f2896fe85c5ca9d032a26f1942", "fields": {"ville": "Paris", "prises_tiers_t3": 1, "id_dsp": "75112-15", "id_autolib": "Paris/Saint-Antoine/238", "adresse": "238 Rue du Faubourg Saint-Antoine", "xy": [48.849279, 2.389115], "prises_autolib": 4.0, "cp": 75012, "type": "Voirie"}, "geometry": {"type": "Point", "coordinates": [2.389115, 48.849279]}, "record_timestamp": "2016-08-27T18:20:20+02:00"},{"datasetid": "stations_et_espaces_autolib_de_la_metropole_parisienne", "recordid": "fc92845a9ae4c75acecb7381282e377ee4f96f03", "fields": {"ville": "Paris", "id_dsp": "75112-20", "id_autolib": "Paris/Daumesnil/199", "adresse": "199 avenue Daumesnil", "xy": [48.839249, 2.397095], "prises_autolib": 4.0, "cp": 75012, "type": "Voirie"}, "geometry": {"type": "Point", "coordinates": [2.397095, 48.839249]}, "record_timestamp": "2016-08-27T18:20:20+02:00"},{"datasetid": "stations_et_espaces_autolib_de_la_metropole_parisienne", "recordid": "60c6564d493f83de8af655626639113c82dc2c07", "fields": {"ville": "Paris", "prises_tiers_t3": 2, "id_dsp": "75113-05", "id_autolib": "Paris/Auguste Blanqui/120", "adresse": "120 boulevard Auguste Blanqui", "xy": [48.831061, 2.344311], "prises_autolib": 4.0, "cp": 75013, "type": "Voirie"}, "geometry": {"type": "Point", "coordinates": [2.344311, 48.831061]}, "record_timestamp": "2016-08-27T18:20:20+02:00"},{"datasetid": "stations_et_espaces_autolib_de_la_metropole_parisienne", "recordid": "7240c472f87604cf10e4b7e23b92d0971a018924", "fields": {"ville": "Paris", "prises_tiers_t3": 2, "id_dsp": "75113-10", "id_autolib": "Paris/Vulpian/24", "adresse": "24 Rue Vulpian", "xy": [48.831177, 2.346105], "prises_autolib": 4.0, "cp": 75013, "type": "Voirie"}, "geometry": {"type": "Point", "coordinates": [2.346105, 48.831177]}, "record_timestamp": "2016-08-27T18:20:20+02:00"},{"datasetid": "stations_et_espaces_autolib_de_la_metropole_parisienne", "recordid": "ad764b63e319e00ebfbd875051b0f533c249837e", "fields": {"ville": "Paris", "prises_tiers_t3": 1, "id_dsp": "75113-21", "id_autolib": "Paris/Ivry/58", "adresse": "58 Avenue D'Ivry", "xy": [48.824336, 2.363655], "prises_autolib": 4.0, "cp": 75013, "type": "Voirie"}, "geometry": {"type": "Point", "coordinates": [2.363655, 48.824336]}, "record_timestamp": "2016-08-27T18:20:20+02:00"},{"datasetid": "stations_et_espaces_autolib_de_la_metropole_parisienne", "recordid": "bee78ff24bf86a1b05e39fa9fc395b0be840c630", "fields": {"ville": "Paris", "prises_tiers_t3": 2, "id_dsp": "75113-26", "id_autolib": "Paris/H\u00f4pital/157", "adresse": "157 Boulevard de L'H\u00f4pital", "xy": [48.836243, 2.359072], "prises_autolib": 4.0, "cp": 75013, "type": "Voirie"}, "geometry": {"type": "Point", "coordinates": [2.359072, 48.836243]}, "record_timestamp": "2016-08-27T18:20:20+02:00"},{"datasetid": "stations_et_espaces_autolib_de_la_metropole_parisienne", "recordid": "5907156ac881c7a8a2c9bb69be4fd83f083b5586", "fields": {"ville": "Paris", "prises_tiers_t3": 2, "id_dsp": "75113-28", "id_autolib": "Paris/Vincent Auriol/81", "adresse": "81 Boulevard Vincent Auriol", "xy": [48.834441, 2.367247], "prises_autolib": 4.0, "cp": 75013, "type": "Voirie"}, "geometry": {"type": "Point", "coordinates": [2.367247, 48.834441]}, "record_timestamp": "2016-08-27T18:20:20+02:00"},{"datasetid": "stations_et_espaces_autolib_de_la_metropole_parisienne", "recordid": "45a66567935825cc5ced3fdc211b0076468b54d0", "fields": {"ville": "Paris", "prises_tiers_t3": 2, "id_dsp": "75113-37", "id_autolib": "Paris/Frigos/24", "adresse": "24 rue des Frigos", "xy": [48.830939, 2.379907], "prises_autolib": 4.0, "cp": 75013, "type": "Voirie"}, "geometry": {"type": "Point", "coordinates": [2.379907, 48.830939]}, "record_timestamp": "2016-08-27T18:20:20+02:00"},{"datasetid": "stations_et_espaces_autolib_de_la_metropole_parisienne", "recordid": "69881b07e736efaa0e887e1208f26a6f08cfdf6d", "fields": {"ville": "Paris", "id_dsp": "75114-28", "id_autolib": "Paris/Didot/80", "adresse": "80 rue Didot", "xy": [48.82872, 2.316252], "prises_autolib": 4.0, "cp": 75014, "type": "Voirie"}, "geometry": {"type": "Point", "coordinates": [2.316252, 48.82872]}, "record_timestamp": "2016-08-27T18:20:20+02:00"},{"datasetid": "stations_et_espaces_autolib_de_la_metropole_parisienne", "recordid": "8b867bf4ad113daf23f0c01a2640f2c76135807c", "fields": {"ville": "Paris", "prises_tiers_t3": 2, "id_dsp": "75114-30", "id_autolib": "Paris/Saint-Jacques/59", "adresse": "59 boulevard Saint-Jacques", "xy": [48.832825, 2.336116], "prises_autolib": 4.0, "cp": 75014, "type": "Voirie"}, "geometry": {"type": "Point", "coordinates": [2.336116, 48.832825]}, "record_timestamp": "2016-08-27T18:20:20+02:00"},{"datasetid": "stations_et_espaces_autolib_de_la_metropole_parisienne", "recordid": "d84059150fed9ba9199ddae0b23c258ddbc913f1", "fields": {"ville": "Paris", "prises_tiers_t3": 2, "id_dsp": "75115-03", "id_autolib": "Paris/Arriv\u00e9e/16", "adresse": "16 rue de l'Arriv\u00e9e", "xy": [48.843217, 2.321596], "prises_autolib": 4.0, "cp": 75015, "type": "Voirie"}, "geometry": {"type": "Point", "coordinates": [2.321596, 48.843217]}, "record_timestamp": "2016-08-27T18:20:20+02:00"},{"datasetid": "stations_et_espaces_autolib_de_la_metropole_parisienne", "recordid": "e7b4effde4332a2b5048c89c70f3948acab9c13b", "fields": {"ville": "Paris", "prises_tiers_t3": 2, "id_dsp": "75115-15", "id_autolib": "Paris/Colonel Pierre Avia/1", "adresse": "1 Rue du Colonel Pierre Avia", "xy": [48.832718, 2.27861], "prises_autolib": 4.0, "cp": 75015, "type": "Voirie"}, "geometry": {"type": "Point", "coordinates": [2.27861, 48.832718]}, "record_timestamp": "2016-08-27T18:20:20+02:00"},{"datasetid": "stations_et_espaces_autolib_de_la_metropole_parisienne", "recordid": "297496c7ff28c7c92d561778d97692dc8ba95042", "fields": {"ville": "Paris", "prises_tiers_t3": 1, "id_dsp": "75115-18", "id_autolib": "Paris/Houdart de Lamotte/2", "adresse": "2 Rue Houdart de Lamotte", "xy": [48.840461, 2.287915], "prises_autolib": 4.0, "cp": 75015, "type": "Voirie"}, "geometry": {"type": "Point", "coordinates": [2.287915, 48.840461]}, "record_timestamp": "2016-08-27T18:20:20+02:00"},{"datasetid": "stations_et_espaces_autolib_de_la_metropole_parisienne", "recordid": "b6c2a3a6a6100029b3a767fd9282ec1392a77c92", "fields": {"ville": "Paris", "prises_tiers_t3": 2, "id_dsp": "75115-19", "id_autolib": "Paris/Lecourbe/178", "adresse": "178 Rue Lecourbe", "xy": [48.841258, 2.297723], "prises_autolib": 4.0, "cp": 75015, "type": "Voirie"}, "geometry": {"type": "Point", "coordinates": [2.297723, 48.841258]}, "record_timestamp": "2016-08-27T18:20:20+02:00"},{"datasetid": "stations_et_espaces_autolib_de_la_metropole_parisienne", "recordid": "dd5c70171fcd891498ede204be89a23a95885352", "fields": {"ville": "Paris", "prises_tiers_t3": 1, "id_dsp": "75115-21", "id_autolib": "Paris/Leblanc/19", "adresse": "19 Rue Leblanc", "xy": [48.839848, 2.273492], "prises_autolib": 4.0, "cp": 75015, "type": "Voirie"}, "geometry": {"type": "Point", "coordinates": [2.273492, 48.839848]}, "record_timestamp": "2016-08-27T18:20:20+02:00"},{"datasetid": "stations_et_espaces_autolib_de_la_metropole_parisienne", "recordid": "dd54c2486d5167d1beb56f45f167fe484cf704db", "fields": {"ville": "Paris", "id_dsp": "75115-25", "id_autolib": "Paris/Vasco de Gama/74", "adresse": "74 rue Vasco de Gama", "xy": [48.835378, 2.285178], "prises_autolib": 4.0, "cp": 75015, "type": "Voirie"}, "geometry": {"type": "Point", "coordinates": [2.285178, 48.835378]}, "record_timestamp": "2016-08-27T18:20:20+02:00"},{"datasetid": "stations_et_espaces_autolib_de_la_metropole_parisienne", "recordid": "d312dbacaf3df72b95cda25bc5f5c1e76e0bd44e", "fields": {"ville": "Paris", "prises_tiers_t3": 2, "id_dsp": "75115-28", "id_autolib": "Paris/Dantzig/37", "adresse": "37 rue de Dantzig", "xy": [48.833546, 2.298806], "prises_autolib": 4.0, "cp": 75015, "type": "Voirie"}, "geometry": {"type": "Point", "coordinates": [2.298806, 48.833546]}, "record_timestamp": "2016-08-27T18:20:20+02:00"},{"datasetid": "stations_et_espaces_autolib_de_la_metropole_parisienne", "recordid": "d4558dcc9b258f9b92167505c56e4de9166a2e9a", "fields": {"ville": "Paris", "prises_tiers_t3": 2, "id_dsp": "75115-31", "id_autolib": "Paris/Commerce/5", "adresse": "5 Place du Commerce", "xy": [48.845513, 2.292099], "prises_autolib": 4.0, "cp": 75015, "type": "Voirie"}, "geometry": {"type": "Point", "coordinates": [2.292099, 48.845513]}, "record_timestamp": "2016-08-27T18:20:20+02:00"},{"datasetid": "stations_et_espaces_autolib_de_la_metropole_parisienne", "recordid": "63a5987b788ca92ba6d930ee425bb50ed4a81083", "fields": {"ville": "Paris", "id_dsp": "75115-39", "id_autolib": "Paris/\u00c9mile Duclaux/19", "adresse": "19 Rue \u00c9mile Duclaux", "xy": [48.842051, 2.309136], "prises_autolib": 4.0, "cp": 75015, "type": "Voirie"}, "geometry": {"type": "Point", "coordinates": [2.309136, 48.842051]}, "record_timestamp": "2016-08-27T18:20:20+02:00"},{"datasetid": "stations_et_espaces_autolib_de_la_metropole_parisienne", "recordid": "9400c24ddea4b77fb83f070efea497cd321b2ad5", "fields": {"ville": "Paris", "prises_tiers_t3": 2, "id_dsp": "75115-41", "id_autolib": "Paris/Finlay/43", "adresse": "43 rue du Docteur Finlay", "xy": [48.851323, 2.291053], "prises_autolib": 4.0, "cp": 75015, "type": "Voirie"}, "geometry": {"type": "Point", "coordinates": [2.291053, 48.851323]}, "record_timestamp": "2016-08-27T18:20:20+02:00"},{"datasetid": "stations_et_espaces_autolib_de_la_metropole_parisienne", "recordid": "a0db680bacefc6af2f68bfb55c57574c51fbfef8", "fields": {"ville": "Paris", "id_dsp": "75115-45", "id_autolib": "Paris/Suffren/44", "adresse": "44 Avenue de Suffren", "xy": [48.853892, 2.296363], "prises_autolib": 4.0, "cp": 75015, "type": "Voirie"}, "geometry": {"type": "Point", "coordinates": [2.296363, 48.853892]}, "record_timestamp": "2016-08-27T18:20:20+02:00"},{"datasetid": "stations_et_espaces_autolib_de_la_metropole_parisienne", "recordid": "6f645c6424782bd53a95af5a8d7de05afb3da5b0", "fields": {"ville": "Paris", "prises_tiers_t3": 1, "id_dsp": "75115-55", "id_autolib": "Paris/Vaugirard/230", "adresse": "230 Rue de Vaugirard", "xy": [48.84057, 2.304456], "prises_autolib": 4.0, "cp": 75015, "type": "Voirie"}, "geometry": {"type": "Point", "coordinates": [2.304456, 48.84057]}, "record_timestamp": "2016-08-27T18:20:20+02:00"},{"datasetid": "stations_et_espaces_autolib_de_la_metropole_parisienne", "recordid": "a65b553e140bb6f0fde703e9108acce5fccf631b", "fields": {"ville": "Paris", "prises_tiers_t3": 2, "id_dsp": "75116-04", "id_autolib": "Paris/Victor Hugo/18", "adresse": "18 Avenue Victor Hugo", "xy": [48.872429, 2.291531], "prises_autolib": 4.0, "cp": 75016, "type": "Voirie"}, "geometry": {"type": "Point", "coordinates": [2.291531, 48.872429]}, "record_timestamp": "2016-08-27T18:20:20+02:00"},{"datasetid": "stations_et_espaces_autolib_de_la_metropole_parisienne", "recordid": "f938da5d37ff8decf31c8d467f8191a1ec417f16", "fields": {"ville": "Paris", "prises_tiers_t3": 1, "id_dsp": "75116-05", "id_autolib": "Paris/\u00c9tats-Unis/16", "adresse": "16 place des \u00c9tats-Unis", "xy": [48.86843, 2.292723], "prises_autolib": 4.0, "cp": 75016, "type": "Voirie"}, "geometry": {"type": "Point", "coordinates": [2.292723, 48.86843]}, "record_timestamp": "2016-08-27T18:20:20+02:00"},{"datasetid": "stations_et_espaces_autolib_de_la_metropole_parisienne", "recordid": "031e932fd10513c8cd548a1d8ea66f2de68cb34f", "fields": {"ville": "Paris", "prises_tiers_t3": 2, "id_dsp": "75116-16", "id_autolib": "Paris/Malakoff/115", "adresse": "115 avenue de Malakoff", "xy": [48.874967, 2.28393], "prises_autolib": 4.0, "cp": 75016, "type": "Voirie"}, "geometry": {"type": "Point", "coordinates": [2.28393, 48.874967]}, "record_timestamp": "2016-08-27T18:20:20+02:00"},{"datasetid": "stations_et_espaces_autolib_de_la_metropole_parisienne", "recordid": "6c90d0b889997e32fc343c80ed4e2da4c4c4b3a4", "fields": {"ville": "Paris", "id_dsp": "75116-25", "id_autolib": "Paris/Jean de la Fontaine/42", "adresse": "42 rue Jean de la Fontaine", "xy": [48.850941, 2.271751], "prises_autolib": 4.0, "cp": 75016, "type": "Voirie"}, "geometry": {"type": "Point", "coordinates": [2.271751, 48.850941]}, "record_timestamp": "2016-08-27T18:20:20+02:00"},{"datasetid": "stations_et_espaces_autolib_de_la_metropole_parisienne", "recordid": "40bee12fadff8734c62533445e4e3f82949e6fd3", "fields": {"ville": "Paris", "prises_tiers_t3": 2, "id_dsp": "75116-33", "id_autolib": "Paris/Versailles/112", "adresse": "112 Avenue de Versailles", "xy": [48.843823, 2.269842], "prises_autolib": 4.0, "cp": 75016, "type": "Voirie"}, "geometry": {"type": "Point", "coordinates": [2.269842, 48.843823]}, "record_timestamp": "2016-08-27T18:20:20+02:00"},{"datasetid": "stations_et_espaces_autolib_de_la_metropole_parisienne", "recordid": "548f1b56b59999bd43b66464571ad9b20f4fb4aa", "fields": {"ville": "Paris", "id_dsp": "75116-37", "id_autolib": "Paris/Mahatma Gandhi/6", "adresse": "6 avenue du Mahatma Gandhi", "xy": [48.877026, 2.267791], "prises_autolib": 5.0, "cp": 75016, "type": "Voirie"}, "geometry": {"type": "Point", "coordinates": [2.267791, 48.877026]}, "record_timestamp": "2016-08-27T18:20:20+02:00"},{"datasetid": "stations_et_espaces_autolib_de_la_metropole_parisienne", "recordid": "1dea14638e324a7a944e5a3a933ea701f9ea09b8", "fields": {"ville": "Paris", "prises_tiers_t3": 2, "id_dsp": "75116-38", "id_autolib": "Paris/Henri Martin/70", "adresse": "70 avenue Henri Martin", "xy": [48.863866, 2.272785], "prises_autolib": 4.0, "cp": 75116, "type": "Voirie"}, "geometry": {"type": "Point", "coordinates": [2.272785, 48.863866]}, "record_timestamp": "2016-08-27T18:20:20+02:00"},{"datasetid": "stations_et_espaces_autolib_de_la_metropole_parisienne", "recordid": "c1af69aaafcf64dc018fddb39609b03e973e1b84", "fields": {"ville": "Paris", "prises_tiers_t3": 2, "id_dsp": "75116-45", "id_autolib": "Paris/Ranelagh/10", "adresse": "10 Rue du Ranelagh", "xy": [48.853289, 2.279371], "prises_autolib": 4.0, "cp": 75016, "type": "Voirie"}, "geometry": {"type": "Point", "coordinates": [2.279371, 48.853289]}, "record_timestamp": "2016-08-27T18:20:20+02:00"},{"datasetid": "stations_et_espaces_autolib_de_la_metropole_parisienne", "recordid": "d59fc565780c3eaaa129fdbf974aa4fb72d295a8", "fields": {"ville": "Paris", "prises_tiers_t3": 2, "id_dsp": "75117-01", "id_autolib": "Paris/Pereire/271", "adresse": "271 Boulevard Pereire", "xy": [48.878065, 2.285113], "prises_autolib": 4.0, "cp": 75017, "type": "Voirie"}, "geometry": {"type": "Point", "coordinates": [2.285113, 48.878065]}, "record_timestamp": "2016-08-27T18:20:20+02:00"},{"datasetid": "stations_et_espaces_autolib_de_la_metropole_parisienne", "recordid": "6424cb782b85eb14df655dbf2dee01246a866db4", "fields": {"ville": "Paris", "prises_tiers_t3": 2, "id_dsp": "75117-02", "id_autolib": "Paris/Porte Pouchet/1", "adresse": "1 Avenue de la Porte Pouchet", "xy": [48.897932, 2.32346], "prises_autolib": 4.0, "cp": 75017, "type": "Voirie"}, "geometry": {"type": "Point", "coordinates": [2.32346, 48.897932]}, "record_timestamp": "2016-08-27T18:20:20+02:00"},{"datasetid": "stations_et_espaces_autolib_de_la_metropole_parisienne", "recordid": "b67dd61d45efd27cb29b754f146b608835465422", "fields": {"ville": "Paris", "prises_tiers_t3": 2, "id_dsp": "75117-05", "id_autolib": "Paris/Courcelles/188", "adresse": "188 rue de Courcelles", "xy": [48.885552, 2.29687], "prises_autolib": 4.0, "cp": 75017, "type": "Voirie"}, "geometry": {"type": "Point", "coordinates": [2.29687, 48.885552]}, "record_timestamp": "2016-08-27T18:20:20+02:00"},{"datasetid": "stations_et_espaces_autolib_de_la_metropole_parisienne", "recordid": "8ac103da113f9755c2f54c254c3f40fc044e6bb1", "fields": {"ville": "Paris", "prises_tiers_t3": 1, "id_dsp": "75117-07", "id_autolib": "Paris/Pouchet/4", "adresse": "4 rue Pouchet", "xy": [48.891752, 2.318783], "prises_autolib": 4.0, "cp": 75017, "type": "Voirie"}, "geometry": {"type": "Point", "coordinates": [2.318783, 48.891752]}, "record_timestamp": "2016-08-27T18:20:20+02:00"},{"datasetid": "stations_et_espaces_autolib_de_la_metropole_parisienne", "recordid": "000c6c90321d9976643a8f45f04a850c312791e9", "fields": {"ville": "Paris", "prises_tiers_t3": 1, "id_dsp": "75117-15", "id_autolib": "Paris/Ko\u00ebnig/12", "adresse": "12 place du G\u00e9n\u00e9ral Ko\u00ebnig", "xy": [48.88139, 2.284383], "prises_autolib": 4.0, "cp": 75017, "type": "Voirie"}, "geometry": {"type": "Point", "coordinates": [2.284383, 48.88139]}, "record_timestamp": "2016-08-27T18:20:20+02:00"},{"datasetid": "stations_et_espaces_autolib_de_la_metropole_parisienne", "recordid": "73917b4eaf451703f8be41b8a20c16fff02318e9", "fields": {"ville": "Paris", "prises_tiers_t3": 1, "id_dsp": "75117-21", "id_autolib": "Paris/Wagram/77", "adresse": "77 Avenue de Wagram", "xy": [48.879927, 2.299267], "prises_autolib": 4.0, "cp": 75017, "type": "Voirie"}, "geometry": {"type": "Point", "coordinates": [2.299267, 48.879927]}, "record_timestamp": "2016-08-27T18:20:20+02:00"},{"datasetid": "stations_et_espaces_autolib_de_la_metropole_parisienne", "recordid": "86055504f6e7e783869f8c6ef061fa98c9fb73ec", "fields": {"ville": "Paris", "prises_tiers_t3": 2, "id_dsp": "75117-26", "id_autolib": "Paris/Brunel/42", "adresse": "42 rue Brunel", "xy": [48.878835, 2.287802], "prises_autolib": 4.0, "cp": 75017, "type": "Voirie"}, "geometry": {"type": "Point", "coordinates": [2.287802, 48.878835]}, "record_timestamp": "2016-08-27T18:20:20+02:00"},{"datasetid": "stations_et_espaces_autolib_de_la_metropole_parisienne", "recordid": "432098767a1d66bfab9631b334133a73676e0666", "fields": {"ville": "Paris", "prises_tiers_t3": 2, "id_dsp": "75118-07", "id_autolib": "Paris/Championnet/28", "adresse": "28 rue Championnet", "xy": [48.89546, 2.350015], "prises_autolib": 4.0, "cp": 75018, "type": "Voirie"}, "geometry": {"type": "Point", "coordinates": [2.350015, 48.89546]}, "record_timestamp": "2016-08-27T18:20:20+02:00"},{"datasetid": "stations_et_espaces_autolib_de_la_metropole_parisienne", "recordid": "98db5c05aeaaa07ee6a3525e0be3f145a2e9d616", "fields": {"ville": "Paris", "prises_tiers_t3": 2, "id_dsp": "75118-09", "id_autolib": "Paris/Caulaincourt/71", "adresse": "71 rue Caulaincourt", "xy": [48.889637, 2.336576], "prises_autolib": 4.0, "cp": 75018, "type": "Voirie"}, "geometry": {"type": "Point", "coordinates": [2.336576, 48.889637]}, "record_timestamp": "2016-08-27T18:20:20+02:00"},{"datasetid": "stations_et_espaces_autolib_de_la_metropole_parisienne", "recordid": "4e2453fc8d5e6ed4bb01b58f0edbf9bdb5e59e55", "fields": {"ville": "Paris", "prises_tiers_t3": 2, "id_dsp": "75118-15", "id_autolib": "Paris/Doudeauville/29", "adresse": "29 rue Doudeauville", "xy": [48.888589, 2.355297], "prises_autolib": 4.0, "cp": 75018, "type": "Voirie"}, "geometry": {"type": "Point", "coordinates": [2.355297, 48.888589]}, "record_timestamp": "2016-08-27T18:20:20+02:00"},{"datasetid": "stations_et_espaces_autolib_de_la_metropole_parisienne", "recordid": "bb05a35677f4e46f3ea74fd6d5210317a34906a2", "fields": {"ville": "Paris", "prises_tiers_t3": 2, "id_dsp": "75118-22", "id_autolib": "Paris/Sofia/16", "adresse": "16 Rue Sofia", "xy": [48.88496, 2.347775], "prises_autolib": 4.0, "cp": 75018, "type": "Voirie"}, "geometry": {"type": "Point", "coordinates": [2.347775, 48.88496]}, "record_timestamp": "2016-08-27T18:20:20+02:00"},{"datasetid": "stations_et_espaces_autolib_de_la_metropole_parisienne", "recordid": "fe44677ea192c4abcbb96b049459b8aa2d73412a", "fields": {"ville": "Paris", "prises_tiers_t3": 2, "id_dsp": "75118-27", "id_autolib": "Paris/Jean-Fran\u00e7ois L\u00e9pine/1", "adresse": "1 rue Jean-Fran\u00e7ois L\u00e9pine", "xy": [48.886033, 2.359144], "prises_autolib": 4.0, "cp": 75018, "type": "Voirie"}, "geometry": {"type": "Point", "coordinates": [2.359144, 48.886033]}, "record_timestamp": "2016-08-27T18:20:20+02:00"},{"datasetid": "stations_et_espaces_autolib_de_la_metropole_parisienne", "recordid": "3144ba5157d41fc2f53d81e2fb2ee3bed119c49f", "fields": {"ville": "Paris", "prises_tiers_t3": 1, "id_dsp": "75118-30", "id_autolib": "Paris/Ordener/1", "adresse": "1 Rue Ordener", "xy": [48.890158, 2.359462], "prises_autolib": 4.0, "cp": 75018, "type": "Voirie"}, "geometry": {"type": "Point", "coordinates": [2.359462, 48.890158]}, "record_timestamp": "2016-08-27T18:20:20+02:00"},{"datasetid": "stations_et_espaces_autolib_de_la_metropole_parisienne", "recordid": "52ca6066e555fe13ab05fe72b1d828fbe37d89c9", "fields": {"ville": "Paris", "prises_tiers_t3": 1, "id_dsp": "75118-32", "id_autolib": "Paris/Boucry/35", "adresse": "35 rue de Boucry", "xy": [48.895085, 2.359667], "prises_autolib": 4.0, "cp": 75018, "type": "Voirie"}, "geometry": {"type": "Point", "coordinates": [2.359667, 48.895085]}, "record_timestamp": "2016-08-27T18:20:20+02:00"},{"datasetid": "stations_et_espaces_autolib_de_la_metropole_parisienne", "recordid": "41407b617859de14c65397e82c1b8dc375a7998d", "fields": {"ville": "Paris", "prises_tiers_t3": 2, "id_dsp": "75118-35", "id_autolib": "Paris/Custine/17", "adresse": "17 Rue Custine", "xy": [48.888111, 2.348172], "prises_autolib": 4.0, "cp": 75018, "type": "Voirie"}, "geometry": {"type": "Point", "coordinates": [2.348172, 48.888111]}, "record_timestamp": "2016-08-27T18:20:20+02:00"},{"datasetid": "stations_et_espaces_autolib_de_la_metropole_parisienne", "recordid": "b64be33f15348d0483beb22fab7381c7540ba71f", "fields": {"ville": "Paris", "prises_tiers_t3": 2, "id_dsp": "75118-38", "id_autolib": "Paris/Jean Cocteau/2", "adresse": "2 rue Jean Cocteau", "xy": [48.89968, 2.352224], "prises_autolib": 4.0, "cp": 75018, "type": "Voirie"}, "geometry": {"type": "Point", "coordinates": [2.352224, 48.89968]}, "record_timestamp": "2016-08-27T18:20:20+02:00"},{"datasetid": "stations_et_espaces_autolib_de_la_metropole_parisienne", "recordid": "7fee0cf65c6e5cb379b4bb66f705b8cd6c89f3f2", "fields": {"ville": "Paris", "id_dsp": "75119-03", "id_autolib": "Paris/Mathis/35", "adresse": "35 rue Mathis", "xy": [48.891164, 2.372698], "prises_autolib": 4.0, "cp": 75019, "type": "Voirie"}, "geometry": {"type": "Point", "coordinates": [2.372698, 48.891164]}, "record_timestamp": "2016-08-27T18:20:20+02:00"},{"datasetid": "stations_et_espaces_autolib_de_la_metropole_parisienne", "recordid": "4677107e8bc22934f8e941d6956884837b4effca", "fields": {"ville": "Paris", "prises_tiers_t3": 2, "id_dsp": "75119-05", "id_autolib": "Paris/\u00c9mile Reynaud/4", "adresse": "4 rue \u00c9mile Reynaud", "xy": [48.90168, 2.386595], "prises_autolib": 4.0, "cp": 75019, "type": "Voirie"}, "geometry": {"type": "Point", "coordinates": [2.386595, 48.90168]}, "record_timestamp": "2016-08-27T18:20:20+02:00"},{"datasetid": "stations_et_espaces_autolib_de_la_metropole_parisienne", "recordid": "ff7c31345afd3a9a700e19aba125187c7d18f199", "fields": {"ville": "Paris", "prises_tiers_t3": 1, "id_dsp": "75119-09", "id_autolib": "Paris/Aubervilliers/38", "adresse": "38 rue d'Aubervilliers", "xy": [48.886155, 2.366503], "prises_autolib": 4.0, "cp": 75019, "type": "Voirie"}, "geometry": {"type": "Point", "coordinates": [2.366503, 48.886155]}, "record_timestamp": "2016-08-27T18:20:20+02:00"},{"datasetid": "stations_et_espaces_autolib_de_la_metropole_parisienne", "recordid": "99896dd277cad2e8eb2b3a2708f11a5be1c6fe87", "fields": {"ville": "Paris", "prises_tiers_t3": 2, "id_dsp": "75119-14", "id_autolib": "Paris/Manin/159", "adresse": "159 Rue Manin", "xy": [48.886033, 2.393553], "prises_autolib": 4.0, "cp": 75019, "type": "Voirie"}, "geometry": {"type": "Point", "coordinates": [2.393553, 48.886033]}, "record_timestamp": "2016-08-27T18:20:20+02:00"},{"datasetid": "stations_et_espaces_autolib_de_la_metropole_parisienne", "recordid": "79014e95ddfd236a707f72b57e4423c4f2d98a05", "fields": {"ville": "Paris", "id_dsp": "75119-15", "id_autolib": "Paris/Seine/77", "adresse": "77 Quai de Seine", "xy": [48.888539, 2.37816], "prises_autolib": 4.0, "cp": 75019, "type": "Voirie"}, "geometry": {"type": "Point", "coordinates": [2.37816, 48.888539]}, "record_timestamp": "2016-08-27T18:20:20+02:00"},{"datasetid": "stations_et_espaces_autolib_de_la_metropole_parisienne", "recordid": "b3a06a68bac065af02b54857b3b275eb7ac2e85b", "fields": {"ville": "Paris", "prises_tiers_t3": 2, "id_dsp": "75119-26", "id_autolib": "Paris/Sept Arpents/9", "adresse": "9 Rue des Sept Arpents", "xy": [48.889441, 2.398149], "prises_autolib": 4.0, "cp": 75019, "type": "Voirie"}, "geometry": {"type": "Point", "coordinates": [2.398149, 48.889441]}, "record_timestamp": "2016-08-27T18:20:20+02:00"},{"datasetid": "stations_et_espaces_autolib_de_la_metropole_parisienne", "recordid": "5c3ec4df509a70dc03d8d63b038c729cabd8610e", "fields": {"ville": "Paris", "prises_tiers_t3": 1, "id_dsp": "75119-35", "id_autolib": "Paris/Secr\u00e9tan/44", "adresse": "44 avenue Secr\u00e9tan", "xy": [48.880585, 2.37446], "prises_autolib": 4.0, "cp": 75019, "type": "Voirie"}, "geometry": {"type": "Point", "coordinates": [2.37446, 48.880585]}, "record_timestamp": "2016-08-27T18:20:20+02:00"},{"datasetid": "stations_et_espaces_autolib_de_la_metropole_parisienne", "recordid": "1ba9dc6f74ebe4d3e7b13ada56d57a1fcd3f3c07", "fields": {"ville": "Paris", "prises_tiers_t3": 2, "id_dsp": "75120-07", "id_autolib": "Paris/M\u00e9nilmontant/30", "adresse": "30 Boulevard de M\u00e9nilmontant", "xy": [48.862707, 2.38786], "prises_autolib": 4.0, "cp": 75020, "type": "Voirie"}, "geometry": {"type": "Point", "coordinates": [2.38786, 48.862707]}, "record_timestamp": "2016-08-27T18:20:20+02:00"},{"datasetid": "stations_et_espaces_autolib_de_la_metropole_parisienne", "recordid": "752f82e2b6995f5e81156883ceab89914702d023", "fields": {"ville": "Paris", "prises_tiers_t3": 2, "id_dsp": "75120-14", "id_autolib": "Paris/Charles et Robert/6", "adresse": "6 rue Charles et Robert", "xy": [48.851601, 2.411954], "prises_autolib": 4.0, "cp": 75020, "type": "Voirie"}, "geometry": {"type": "Point", "coordinates": [2.411954, 48.851601]}, "record_timestamp": "2016-08-27T18:20:20+02:00"},{"datasetid": "stations_et_espaces_autolib_de_la_metropole_parisienne", "recordid": "ff3ba4a8c3ee13cb202555f4e6ef2a432f678ca6", "fields": {"ville": "Paris", "prises_tiers_t3": 1, "id_dsp": "75120-22", "id_autolib": "Paris/Harpignies/3", "adresse": "3 rue Harpignies", "xy": [48.858769, 2.410683], "prises_autolib": 4.0, "cp": 75020, "type": "Voirie"}, "geometry": {"type": "Point", "coordinates": [2.410683, 48.858769]}, "record_timestamp": "2016-08-27T18:20:20+02:00"},{"datasetid": "stations_et_espaces_autolib_de_la_metropole_parisienne", "recordid": "52ed179dfc654c8270602f53d97842afd50d7715", "fields": {"ville": "Paris", "prises_tiers_t3": 2, "id_dsp": "75120-38", "id_autolib": "Paris/Fr\u00e9d\u00e9ric Loli\u00e9e/5", "adresse": "5 rue Fr\u00e9d\u00e9ric Loli\u00e9e", "xy": [48.849545, 2.406083], "prises_autolib": 4.0, "cp": 75020, "type": "Voirie"}, "geometry": {"type": "Point", "coordinates": [2.406083, 48.849545]}, "record_timestamp": "2016-08-27T18:20:20+02:00"},{"datasetid": "stations_et_espaces_autolib_de_la_metropole_parisienne", "recordid": "c27cc488b071502798d16fd7a22263c392ef6b4f", "fields": {"ville": "Le Chesnay", "id_dsp": "78158-03", "id_autolib": "Le Chesnay/Pottier/7", "adresse": "7 rue Pottier", "xy": [48.825355, 2.125862], "prises_autolib": 7.0, "cp": 78150, "type": "Voirie"}, "geometry": {"type": "Point", "coordinates": [2.125862, 48.825355]}, "record_timestamp": "2016-08-27T18:20:20+02:00"},{"datasetid": "stations_et_espaces_autolib_de_la_metropole_parisienne", "recordid": "4f4113ce81bcc09b485d3e71fba74049a4e5eb53", "fields": {"ville": "Le Chesnay", "id_dsp": "78158-04", "id_autolib": "Le Chesnay/Charles de Gaulle/103", "adresse": "103 avenue Charles de Gaulle", "xy": [48.82923, 2.126929], "prises_autolib": 6.0, "cp": 78150, "type": "Voirie"}, "geometry": {"type": "Point", "coordinates": [2.126929, 48.82923]}, "record_timestamp": "2016-08-27T18:20:20+02:00"},{"datasetid": "stations_et_espaces_autolib_de_la_metropole_parisienne", "recordid": "fa5a2b200ae518fb10ce2b1859438f622f3ae761", "fields": {"ville": "V\u00e9lizy-Villacoublay", "id_dsp": "78640-02", "id_autolib": "V\u00e9lizy-Villacoublay/Dewoittine/1", "adresse": "1 rue Dewoittine", "xy": [48.782969, 2.215467], "prises_autolib": 6.0, "cp": 78140, "type": "Voirie"}, "geometry": {"type": "Point", "coordinates": [2.215467, 48.782969]}, "record_timestamp": "2016-08-27T18:20:20+02:00"},{"datasetid": "stations_et_espaces_autolib_de_la_metropole_parisienne", "recordid": "d4cff531a3864c85a5e68c7da1d9a85ecbfd8d86", "fields": {"ville": "V\u00e9lizy-Villacoublay", "id_dsp": "78640-04", "id_autolib": "V\u00e9lizy-Villacoublay/Capitaine Tarron/8", "adresse": "8 avenue du Capitaine Tarron", "xy": [48.782525, 2.190057], "prises_autolib": 4.0, "cp": 78140, "type": "Voirie"}, "geometry": {"type": "Point", "coordinates": [2.190057, 48.782525]}, "record_timestamp": "2016-08-27T18:20:20+02:00"},{"datasetid": "stations_et_espaces_autolib_de_la_metropole_parisienne", "recordid": "65dc40c5c62d17d9da064b6d8cfaa6abed18c1ef", "fields": {"ville": "V\u00e9lizy-Villacoublay", "id_dsp": "78640-05", "id_autolib": "V\u00e9lizy-Villacoublay/Marcel Dassault/2", "adresse": "2 rue Marcel Dassault", "xy": [48.784492, 2.214927], "prises_autolib": 7.0, "cp": 78140, "type": "Voirie"}, "geometry": {"type": "Point", "coordinates": [2.214927, 48.784492]}, "record_timestamp": "2016-08-27T18:20:20+02:00"},{"datasetid": "stations_et_espaces_autolib_de_la_metropole_parisienne", "recordid": "ddc637a6aaf7fc55f7f19bde2b50426789a1eb42", "fields": {"ville": "Yerres", "prises_tiers_t3": 1, "id_dsp": "91691-03", "id_autolib": "Yerres/Pierre Brossolette/92", "adresse": "92 rue Pierre Brossolette", "xy": [48.700706, 2.482884], "prises_autolib": 6.0, "cp": 91330, "type": "Voirie"}, "geometry": {"type": "Point", "coordinates": [2.482884, 48.700706]}, "record_timestamp": "2016-08-27T18:20:20+02:00"},{"datasetid": "stations_et_espaces_autolib_de_la_metropole_parisienne", "recordid": "c82a338f51a44ab0b77ac85afe0493ddc89473f4", "fields": {"ville": "Antony", "id_dsp": "92002-01", "id_autolib": "Antony/Anciens combattants d'Afrique du Nord/1", "adresse": "1 place des Anciens combattants d'Afrique du Nord", "xy": [48.7501, 2.299434], "prises_autolib": 5.0, "cp": 92160, "type": "Voirie"}, "geometry": {"type": "Point", "coordinates": [2.299434, 48.7501]}, "record_timestamp": "2016-08-27T18:20:20+02:00"},{"datasetid": "stations_et_espaces_autolib_de_la_metropole_parisienne", "recordid": "3f6a97c054a733dcabc84d52e6cc8298d3bc4e81", "fields": {"ville": "Asni\u00e8res-sur-Seine", "id_dsp": "92004-11", "id_autolib": "Asni\u00e8res-sur-Seine/Bas/6", "adresse": "6 Rue des Bas", "xy": [48.914668, 2.284232], "prises_autolib": 6.0, "cp": 92600, "type": "Voirie", "abri": "1.0"}, "geometry": {"type": "Point", "coordinates": [2.284232, 48.914668]}, "record_timestamp": "2016-08-27T18:20:20+02:00"},{"datasetid": "stations_et_espaces_autolib_de_la_metropole_parisienne", "recordid": "ee15a36c3b56f29067986d5109d809db2e3cb8a2", "fields": {"ville": "Bagneux", "id_dsp": "92007-01", "id_autolib": "Bagneux/L\u00e9on Blum/13", "adresse": "13 Rue L\u00e9on Blum", "xy": [48.794191, 2.301621], "prises_autolib": 6.0, "cp": 92220, "type": "Voirie"}, "geometry": {"type": "Point", "coordinates": [2.301621, 48.794191]}, "record_timestamp": "2016-08-27T18:20:20+02:00"},{"datasetid": "stations_et_espaces_autolib_de_la_metropole_parisienne", "recordid": "8a2312ed323f95199a230ce284dbf132e34e900f", "fields": {"ville": "Boulogne-Billancourt", "id_dsp": "92012-13", "id_autolib": "Boulogne-Billancourt/Gallieni/114", "adresse": "114 rue Gallieni", "xy": [48.836777, 2.23939], "prises_autolib": 6.0, "cp": 92100, "type": "Voirie", "abri": "1.0"}, "geometry": {"type": "Point", "coordinates": [2.23939, 48.836777]}, "record_timestamp": "2016-08-27T18:20:20+02:00"},{"datasetid": "stations_et_espaces_autolib_de_la_metropole_parisienne", "recordid": "5219db4d597281c0cf8a05c345f9c9acc7fba71b", "fields": {"ville": "Ch\u00e2tillon", "id_dsp": "92020-04", "id_autolib": "Ch\u00e2tillon/Paris/21", "adresse": "21 avenue de Paris", "xy": [48.804897, 2.289826], "prises_autolib": 6.0, "cp": 92320, "type": "Voirie"}, "geometry": {"type": "Point", "coordinates": [2.289826, 48.804897]}, "record_timestamp": "2016-08-27T18:20:20+02:00"},{"datasetid": "stations_et_espaces_autolib_de_la_metropole_parisienne", "recordid": "bc61f93e45253f13283f344fdb980dd830416e20", "fields": {"ville": "Ch\u00e2tillon", "id_dsp": "92020-08", "id_autolib": "Ch\u00e2tillon/Verdun/76", "adresse": "76 avenue de Verdun", "xy": [48.800051, 2.282007], "prises_autolib": 6.0, "cp": 92320, "type": "Voirie"}, "geometry": {"type": "Point", "coordinates": [2.282007, 48.800051]}, "record_timestamp": "2016-08-27T18:20:20+02:00"},{"datasetid": "stations_et_espaces_autolib_de_la_metropole_parisienne", "recordid": "4aa229b306cc232498574174480b8f525f560b9c", "fields": {"ville": "Chaville", "id_dsp": "92022-04", "id_autolib": "Chaville/Roger Salengro/705", "adresse": "705 Avenue Roger Salengro", "xy": [48.814694, 2.19341], "prises_autolib": 6.0, "cp": 92370, "type": "Voirie"}, "geometry": {"type": "Point", "coordinates": [2.19341, 48.814694]}, "record_timestamp": "2016-08-27T18:20:20+02:00"},{"datasetid": "stations_et_espaces_autolib_de_la_metropole_parisienne", "recordid": "ffda08a1039b7ee621469c34a33fef7df30df48a", "fields": {"ville": "Colombes", "id_dsp": "92025-16", "id_autolib": "Colombes/Victor Hugo/42", "adresse": "42 Rue Victor Hugo", "xy": [48.920927, 2.263615], "prises_autolib": 6.0, "cp": 92700, "type": "Voirie"}, "geometry": {"type": "Point", "coordinates": [2.263615, 48.920927]}, "record_timestamp": "2016-08-27T18:20:20+02:00"},{"datasetid": "stations_et_espaces_autolib_de_la_metropole_parisienne", "recordid": "e8b0633dee199e64dfc0e09adc79d62cd663628f", "fields": {"ville": "Colombes", "id_dsp": "92025-17", "id_autolib": "Colombes/Valmy/160", "adresse": "160 Boulevard de Valmy", "xy": [48.936064, 2.257222], "prises_autolib": 7.0, "cp": 92700, "type": "Voirie"}, "geometry": {"type": "Point", "coordinates": [2.257222, 48.936064]}, "record_timestamp": "2016-08-27T18:20:20+02:00"},{"datasetid": "stations_et_espaces_autolib_de_la_metropole_parisienne", "recordid": "7df03db1d1dd20aeeecbd3a31d922cf520e8dd70", "fields": {"ville": "Colombes", "id_dsp": "92025-18", "id_autolib": "Colombes/Parc Lagrav\u00e8re/1", "adresse": "1 all\u00e9e Parc Lagrav\u00e8re", "prises_autolib": 7.0, "cp": 92700, "type": "Voirie"}, "record_timestamp": "2016-08-27T18:20:20+02:00"},{"datasetid": "stations_et_espaces_autolib_de_la_metropole_parisienne", "recordid": "4df9088f211afefc3c1466009bdab33bf4d8a427", "fields": {"ville": "Courbevoie", "prises_tiers_t3": 1, "id_dsp": "92026-15", "id_autolib": "Courbevoie/H\u00e9rold/6", "adresse": "6 Place H\u00e9rold", "xy": [48.896866, 2.255888], "prises_autolib": 5.0, "cp": 92400, "type": "Voirie", "abri": "1.0"}, "geometry": {"type": "Point", "coordinates": [2.255888, 48.896866]}, "record_timestamp": "2016-08-27T18:20:20+02:00"},{"datasetid": "stations_et_espaces_autolib_de_la_metropole_parisienne", "recordid": "93851f1b98af04b55645822b3d84df1f0aa59362", "fields": {"ville": "Fontenay-aux-Roses", "id_dsp": "92032-01", "id_autolib": "Fontenay-aux-Roses/Jean Jaur\u00e8s/3", "adresse": "3 rue Jean Jaur\u00e8s", "xy": [48.790724, 2.287241], "prises_autolib": 4.0, "cp": 92260, "type": "Voirie", "abri": "1.0"}, "geometry": {"type": "Point", "coordinates": [2.287241, 48.790724]}, "record_timestamp": "2016-08-27T18:20:20+02:00"},{"datasetid": "stations_et_espaces_autolib_de_la_metropole_parisienne", "recordid": "fa70bf470eba154e52f87d9e87d2e997937e9e36", "fields": {"ville": "Fontenay-aux-Roses", "id_dsp": "92032-08", "id_autolib": "Fontenay-aux-Roses/Lombard/20", "adresse": "20 Avenue Lombard", "xy": [48.787068, 2.293311], "prises_autolib": 6.0, "cp": 92260, "type": "Voirie"}, "geometry": {"type": "Point", "coordinates": [2.293311, 48.787068]}, "record_timestamp": "2016-08-27T18:20:20+02:00"},{"datasetid": "stations_et_espaces_autolib_de_la_metropole_parisienne", "recordid": "29856bc36f4f9332ba3fbd72503fe1d210ce9d76", "fields": {"ville": "Gennevilliers", "id_dsp": "92036-07", "id_autolib": "Gennevilliers/Gabriel P\u00e9ri/169", "adresse": "169 avenue Gabriel P\u00e9ri", "xy": [48.924238, 2.294301], "prises_autolib": 6.0, "cp": 92230, "type": "Voirie", "abri": "1.0"}, "geometry": {"type": "Point", "coordinates": [2.294301, 48.924238]}, "record_timestamp": "2016-08-27T18:20:20+02:00"},{"datasetid": "stations_et_espaces_autolib_de_la_metropole_parisienne", "recordid": "0fb10aa2a32c92ff393deb22007dc23815ed2568", "fields": {"ville": "Gennevilliers", "id_dsp": "92036-08", "id_autolib": "Gennevilliers/R\u00e9publique/16", "adresse": "16 avenue de la r\u00e9publique", "xy": [48.920797, 2.295934], "prises_autolib": 6.0, "cp": 92230, "type": "Voirie"}, "geometry": {"type": "Point", "coordinates": [2.295934, 48.920797]}, "record_timestamp": "2016-08-27T18:20:20+02:00"},{"datasetid": "stations_et_espaces_autolib_de_la_metropole_parisienne", "recordid": "fbd81c5bb7898ee7a1b680ce3227969908caa614", "fields": {"ville": "Issy-les-Moulineaux", "id_dsp": "92040-03", "id_autolib": "Issy-les-Moulineaux/Leclerc/46", "adresse": "46 Rue du G\u00e9n\u00e9ral Leclerc", "xy": [48.825319, 2.276199], "prises_autolib": 6.0, "cp": 92130, "type": "Voirie", "abri": "1.0"}, "geometry": {"type": "Point", "coordinates": [2.276199, 48.825319]}, "record_timestamp": "2016-08-27T18:20:20+02:00"},{"datasetid": "stations_et_espaces_autolib_de_la_metropole_parisienne", "recordid": "b646a2a20e30f28b49bd0ecbde502e1b39573b46", "fields": {"ville": "Issy-les-Moulineaux", "id_dsp": "92040-14", "id_autolib": "Issy-les-Moulineaux/Joseph Frantz/46", "adresse": "46 Rue Joseph Frantz", "prises_autolib": 6.0, "cp": 92130, "type": "Voirie"}, "record_timestamp": "2016-08-27T18:20:20+02:00"},{"datasetid": "stations_et_espaces_autolib_de_la_metropole_parisienne", "recordid": "0884d75ff06368c310cadfb1208ca74f6f0eb30d", "fields": {"ville": "Issy-les-Moulineaux", "id_dsp": "92040-15", "id_autolib": "Issy-les-Moulineaux/Gallieni/27", "adresse": "27 boulevard Gallieni", "xy": [48.827647, 2.267617], "prises_autolib": 6.0, "cp": 92130, "type": "Voirie"}, "geometry": {"type": "Point", "coordinates": [2.267617, 48.827647]}, "record_timestamp": "2016-08-27T18:20:20+02:00"},{"datasetid": "stations_et_espaces_autolib_de_la_metropole_parisienne", "recordid": "bf153e3b080bd8dcf176fbf6880bcf9d123fd204", "fields": {"ville": "Issy-les-Moulineaux", "prises_tiers_t3": 1, "id_dsp": "92040-16", "id_autolib": "Issy-les-Moulineaux/Ren\u00e9 Jacques/1", "adresse": "1 Rue Ren\u00e9 Jacques", "xy": [48.82375, 2.261799], "prises_autolib": 4.0, "cp": 92130, "type": "Voirie"}, "geometry": {"type": "Point", "coordinates": [2.261799, 48.82375]}, "record_timestamp": "2016-08-27T18:20:20+02:00"},{"datasetid": "stations_et_espaces_autolib_de_la_metropole_parisienne", "recordid": "6e3b0b5325803fd388c94c6957d9881c2d86dd7f", "fields": {"ville": "Malakoff", "id_dsp": "92046-01", "id_autolib": "Malakoff/Wilson/2", "adresse": "2 avenue du Pr\u00e9sident Wilson", "xy": [48.820516, 2.301902], "prises_autolib": 6.0, "cp": 92240, "type": "Voirie"}, "geometry": {"type": "Point", "coordinates": [2.301902, 48.820516]}, "record_timestamp": "2016-08-27T18:20:20+02:00"},{"datasetid": "stations_et_espaces_autolib_de_la_metropole_parisienne", "recordid": "ebb76d1456b27be49a3d609169f011a015bb9897", "fields": {"ville": "Meudon", "id_dsp": "92048-09", "id_autolib": "Meudon/De Gaulle/19", "adresse": "19 avenue du G\u00e9n\u00e9ral de Gaulle", "xy": [50.513173, 1.600371], "prises_autolib": 6.0, "cp": 92190, "type": "Voirie"}, "geometry": {"type": "Point", "coordinates": [1.600371, 50.513173]}, "record_timestamp": "2016-08-27T18:20:20+02:00"},{"datasetid": "stations_et_espaces_autolib_de_la_metropole_parisienne", "recordid": "a55cb19fdb7c0162d2e6b156c9edc6ed6265b03b", "fields": {"ville": "Montrouge", "id_dsp": "92049-12", "id_autolib": "Montrouge/R\u00e9publique/43", "adresse": "43 avenue de la R\u00e9publique", "xy": [48.818707, 2.3198], "prises_autolib": 6.0, "cp": 92120, "type": "Voirie", "abri": "1.0"}, "geometry": {"type": "Point", "coordinates": [2.3198, 48.818707]}, "record_timestamp": "2016-08-27T18:20:20+02:00"},{"datasetid": "stations_et_espaces_autolib_de_la_metropole_parisienne", "recordid": "f7ac6ec2b20473af79a0699eba9e18ab0c1a9d29", "fields": {"ville": "Nanterre", "id_dsp": "92050-10", "id_autolib": "Nanterre/8 mai 1945/109", "adresse": "109 Rue du 8 mai 1945", "xy": [48.892624, 2.206274], "prises_autolib": 6.0, "cp": 92000, "type": "Voirie"}, "geometry": {"type": "Point", "coordinates": [2.206274, 48.892624]}, "record_timestamp": "2016-08-27T18:20:20+02:00"},{"datasetid": "stations_et_espaces_autolib_de_la_metropole_parisienne", "recordid": "2b4b24b61c58f373137eb09f136b6d8ee2f21c0d", "fields": {"ville": "Nanterre", "id_dsp": "92050-13", "id_autolib": "Nanterre/Champs Pierreux/29", "adresse": "29 avenue des Champs Pierreux", "xy": [48.888802, 2.213936], "prises_autolib": 4.0, "cp": 92000, "type": "Voirie", "abri": "1.0"}, "geometry": {"type": "Point", "coordinates": [2.213936, 48.888802]}, "record_timestamp": "2016-08-27T18:20:20+02:00"},{"datasetid": "stations_et_espaces_autolib_de_la_metropole_parisienne", "recordid": "99d067b1d7a799a9dd32fa7b74a5b136111475d7", "fields": {"ville": "Nanterre", "id_dsp": "92050-14", "id_autolib": "Nanterre/Ecoles/5", "adresse": "5 rue des Ecoles", "xy": [48.886795, 2.21857], "prises_autolib": 6.0, "cp": 92000, "type": "Voirie"}, "geometry": {"type": "Point", "coordinates": [2.21857, 48.886795]}, "record_timestamp": "2016-08-27T18:20:20+02:00"},{"datasetid": "stations_et_espaces_autolib_de_la_metropole_parisienne", "recordid": "54789981df4e000d8a1e3efc7adf74baa8667825", "fields": {"ville": "Nanterre", "id_dsp": "92050-20", "id_autolib": "Nanterre/Jules Quentin/33", "adresse": "33 Avenue Jules Quentin", "xy": [48.897305, 2.186604], "prises_autolib": 6.0, "cp": 92000, "type": "Voirie"}, "geometry": {"type": "Point", "coordinates": [2.186604, 48.897305]}, "record_timestamp": "2016-08-27T18:20:20+02:00"},{"datasetid": "stations_et_espaces_autolib_de_la_metropole_parisienne", "recordid": "1022af59845bd2a82de6dea1bf05f3574aa2e003", "fields": {"ville": "Nanterre", "id_dsp": "92050-22", "id_autolib": "Nanterre/Lavoisier/14", "adresse": "14 rue Lavoisier", "xy": [48.896467, 2.17543], "prises_autolib": 7.0, "cp": 92000, "type": "Voirie"}, "geometry": {"type": "Point", "coordinates": [2.17543, 48.896467]}, "record_timestamp": "2016-08-27T18:20:20+02:00"},{"datasetid": "stations_et_espaces_autolib_de_la_metropole_parisienne", "recordid": "4a609dc39b2c03ad5e077abb1c320e86377609bf", "fields": {"ville": "Plessis-Robinson", "id_dsp": "92060-01", "id_autolib": "Plessis-Robinson/Charles-de-Gaulle/6", "adresse": "6 avenue Charles-de-Gaulle", "xy": [48.782458, 2.264467], "prises_autolib": 6.0, "cp": 92350, "type": "Voirie"}, "geometry": {"type": "Point", "coordinates": [2.264467, 48.782458]}, "record_timestamp": "2016-08-27T18:20:20+02:00"},{"datasetid": "stations_et_espaces_autolib_de_la_metropole_parisienne", "recordid": "36cb07e61c0b8fee9c73036f82b1f1164f01c572", "fields": {"ville": "Paris", "id_dsp": "75106-PA", "id_autolib": "Paris/Rennes Montparnasse/Parking", "adresse": "155 bis rue de Rennes", "xy": [48.845038, 2.325224], "prises_autolib": 6.0, "cp": 75006, "type": "Parking"}, "geometry": {"type": "Point", "coordinates": [2.325224, 48.845038]}, "record_timestamp": "2016-08-27T18:20:20+02:00"},{"datasetid": "stations_et_espaces_autolib_de_la_metropole_parisienne", "recordid": "5662b871b4d0050fa5a9fb8835cf03734910c640", "fields": {"ville": "Paris", "id_dsp": "75106-PE", "id_autolib": "Paris/Saint-Germain des Pr\u00e9s/Parking", "adresse": "171 boulevard Saint-Germain", "xy": [48.854155, 2.330922], "prises_autolib": 6.0, "cp": 75006, "type": "Parking"}, "geometry": {"type": "Point", "coordinates": [2.330922, 48.854155]}, "record_timestamp": "2016-08-27T18:20:20+02:00"},{"datasetid": "stations_et_espaces_autolib_de_la_metropole_parisienne", "recordid": "1248908787d5bddf57122a752d9af7d786c37d3d", "fields": {"ville": "Paris", "id_dsp": "75113-PH", "id_autolib": "Paris/Quai d'Austerlitz/Parking", "adresse": "29 quai Austerlitz", "xy": [48.83936, 2.371312], "prises_autolib": 6.0, "cp": 75013, "type": "Parking"}, "geometry": {"type": "Point", "coordinates": [2.371312, 48.83936]}, "record_timestamp": "2016-08-27T18:20:20+02:00"},{"datasetid": "stations_et_espaces_autolib_de_la_metropole_parisienne", "recordid": "976cf285ce2e52f6a6c008a473792d2f98a3f3ab", "fields": {"ville": "Paris", "id_dsp": "75114-PD", "id_autolib": "Paris/Montparnasse Raspail/Parking", "adresse": "120 boulevard du Montparnasse", "xy": [48.84143, 2.330679], "prises_autolib": 6.0, "cp": 75014, "type": "Parking"}, "geometry": {"type": "Point", "coordinates": [2.330679, 48.84143]}, "record_timestamp": "2016-08-27T18:20:20+02:00"},{"datasetid": "stations_et_espaces_autolib_de_la_metropole_parisienne", "recordid": "29c69946117ad9cbf4c8162d92e53ba2476ea176", "fields": {"ville": "Paris", "id_dsp": "75114-PF", "id_autolib": "Paris/Saint-Jacques 1/Parking", "adresse": "61 boulevard Saint-Jacques", "xy": [48.832977, 2.335575], "prises_autolib": 6.0, "cp": 75014, "type": "Parking"}, "geometry": {"type": "Point", "coordinates": [2.335575, 48.832977]}, "record_timestamp": "2016-08-27T18:20:20+02:00"},{"datasetid": "stations_et_espaces_autolib_de_la_metropole_parisienne", "recordid": "3aef2cde4ac8ffb9b2b3774c422332e16205dba4", "fields": {"ville": "Paris", "id_dsp": "75115-PC", "id_autolib": "Paris/Pasteur 2/Parking", "adresse": "69 boulevard Pasteur", "xy": [48.840851, 2.31496], "prises_autolib": 6.0, "cp": 75015, "type": "Parking"}, "geometry": {"type": "Point", "coordinates": [2.31496, 48.840851]}, "record_timestamp": "2016-08-27T18:20:20+02:00"},{"datasetid": "stations_et_espaces_autolib_de_la_metropole_parisienne", "recordid": "c5e50231be13429d34889d7ec283876a349c045e", "fields": {"ville": "Paris", "id_dsp": "75116-PE", "id_autolib": "Paris/Porte d'Auteuil/Parking", "adresse": "1 avenue du G\u00e9n\u00e9ral Sarrail", "xy": [48.84732, 2.256903], "prises_autolib": 6.0, "cp": 75016, "type": "Parking"}, "geometry": {"type": "Point", "coordinates": [2.256903, 48.84732]}, "record_timestamp": "2016-08-27T18:20:20+02:00"},{"datasetid": "stations_et_espaces_autolib_de_la_metropole_parisienne", "recordid": "86d7ee456c3e25995738499db8bde97f00a0eb38", "fields": {"ville": "Paris", "id_dsp": "75117-PG", "id_autolib": "Paris/Ternes/Parking", "adresse": "38 avenue des Ternes", "xy": [48.879025, 2.293333], "prises_autolib": 6.0, "cp": 75017, "type": "Parking"}, "geometry": {"type": "Point", "coordinates": [2.293333, 48.879025]}, "record_timestamp": "2016-08-27T18:20:20+02:00"},{"datasetid": "stations_et_espaces_autolib_de_la_metropole_parisienne", "recordid": "99a152460e46a14e0302ef7f04c71860de0d71e7", "fields": {"ville": "Levallois-Perret", "id_dsp": "92044-PA", "id_autolib": "Levallois-Perret/H\u00f4tel de Ville/Parking", "adresse": "1 Place de la R\u00e9publique", "xy": [48.893164, 2.289003], "prises_autolib": 6.0, "cp": 92300, "type": "Parking"}, "geometry": {"type": "Point", "coordinates": [2.289003, 48.893164]}, "record_timestamp": "2016-08-27T18:20:20+02:00"},{"datasetid": "stations_et_espaces_autolib_de_la_metropole_parisienne", "recordid": "003599a8db2d0a2e3f096c7c137a6d71a65a0e6a", "fields": {"ville": "Levallois-Perret", "id_dsp": "92044-PJ", "id_autolib": "Levallois-Perret/Louise Michel/Parking", "adresse": "8 rue Louise Michel", "xy": [48.887205, 2.284554], "prises_autolib": 6.0, "cp": 92300, "type": "Parking"}, "geometry": {"type": "Point", "coordinates": [2.284554, 48.887205]}, "record_timestamp": "2016-08-27T18:20:20+02:00"},{"datasetid": "stations_et_espaces_autolib_de_la_metropole_parisienne", "recordid": "56eefe7d9abc7d45ca89c5e07bbac33ffed17964", "fields": {"ville": "Paris", "id_dsp": "75101-04", "id_autolib": "Paris/Saint Roch/3", "adresse": "3 Rue Saint Roch", "xy": [48.864351, 2.33148], "prises_autolib": 4.0, "cp": 75001, "type": "Voirie"},